,name,place_id,rating,user_ratings_total,lat_g,lng_g
598,Ireland's Pub 10,ChIJ-5lVO37RD4gR7ZvvbMEt-7k,0,0,42.0003068,-87.6599574
208,Windy City Taproom,ChIJEYrYIKIxDogRi6TCKkbRxOY,1.7,85,41.7879225,-87.74423689999999
21,Midway Pour House,ChIJZRP51QUxDogRYx9cpwczdYY,1.9,90,41.7860686,-87.7418982
843,Goose Island Beer Co.,ChIJ_zYsNUO1D4gRNdn9rssOkzc,2.6,9,41.977076,-87.9072051
178,Facades Bar,ChIJ4-t8fCy0D4gRRcBgDTUn83Y,2.8,37,41.9743675,-87.8969762
837,Stanley's Kitchen & Tap,ChIJo-5yfia0D4gRepHDglCeA0o,2.8,444,41.9751738,-87.9064726
213,Sound Bar,ChIJ0Roy97QsDogRDDM-rGKnnQw,3.1,736,41.8934418,-87.6353769
804,La Cueva,ChIJXZgqPKQzDogR5wmFYv0E2V8,3.2,17,41.8440636,-87.72913190000001
748,Beaudevin,ChIJp2wsLse1D4gRS-lxHfX__cg,3.2,5,41.9783893,-87.910249
612,Bridges Lobby Grill at London House,ChIJCwWLVqstDogRGNMdhW-0718,3.2,25,41.8877823,-87.6254264
80,United Club near gate B6,ChIJ9YdpefW1D4gRBje3uIC5Dow,3.2,48,41.9780471,-87.9068826
599,Esco Bar,ChIJo9ZfQcUsDogRoxpG13rrIYc,3.3,158,41.8846651,-87.6472976
587,Chicago News Room,ChIJ3ZNSEccsDogR_E4-AasYvn0,3.3,24,41.8823072,-87.6403847
833,The Closet,ChIJmyBxiqTTD4gRv9pK-HdCjXg,3.3,91,41.94267139999999,-87.64436189999999
861,Wrigley Rooftops,ChIJ96_QzLPTD4gRUFIpFqZi9Tk,3.4,72,41.947744,-87.65400430000001
476,Bounce Sporting Club,ChIJP_F66UrTD4gRrq4LGJo75bA,3.4,432,41.8967085,-87.6368001
863,Wrigley Rooftops,ChIJ96_QzLPTD4gRUFIpFqZi9Tk,3.4,72,41.947744,-87.65400430000001
234,The Dugout Bar,ChIJG1IJI_HTD4gRzzeCdQ243nA,3.4,301,41.9473973,-87.6539586
4,Room 13,ChIJXVG83NnTD4gRPmcf8MybJ7g,3.4,23,41.940645,-87.65438549999999
69,Progress Bar Chicago,ChIJG5QQl6_TD4gR7mE7SbAbjPY,3.4,140,41.94351570000001,-87.649223
860,Wrigley Rooftops,ChIJ96_QzLPTD4gRUFIpFqZi9Tk,3.4,72,41.947744,-87.65400430000001
603,Margaritaville - Chicago,ChIJ2y7xkU0rDogR5qOTZYZF-PM,3.5,967,41.8913811,-87.608249
902,Splash Chicago,ChIJJaZPAIHTD4gRsuC6-4n70IE,3.5,54,41.9429115,-87.6492171
307,Big City Tap,ChIJi7MxjKvTD4gR9wzX9tnK37I,3.6,289,41.9400037,-87.65452979999999
122,B G's Lounge,ChIJB9GoypzLD4gRrkFdPIaGI_M,3.6,62,41.9418997,-87.7864085
100,Parlay at Joy District,ChIJ0ZI92SwtDogRTzlRtsJTI70,3.6,17,41.8902353,-87.6317849
548,Santa Baby Bar,ChIJO-1UZaLTD4gR0AThKzMhOQk,3.6,337,41.9458136,-87.65524119999999
851,Patron Mexican Grill,ChIJwbwQsMM2DogRJRK3WQXz_qg,3.6,495,41.792255,-87.7929699
305,Utopian Tailgate,ChIJsRWHz9rTD4gROTiwF_24NW0,3.7,566,41.9114253,-87.6349291
120,Harry Caray's Shortstop,ChIJtVU9cqExDogR4bPvRo3Q9Fc,3.7,54,41.7854351,-87.7428876
624,Connect to Chicago,ChIJdTMmHya0D4gRqnr-jLCQ8Ho,3.7,49,41.97687639999999,-87.90472290000001
176,Hydrate Nightclub,ChIJcVd84K_TD4gR61CvEhs_VHE,3.7,188,41.9453701,-87.6496095
623,Woven + Bound Restaurant,ChIJUeS4pn8sDogRen-AzaehqYI,3.8,172,41.8536539,-87.6197163
490,Watra Night Club,ChIJ8wetvpExDogRxZQknXeppEc,3.8,65,41.8062492,-87.723744
239,Mc Nally's,ChIJrSQ3Q9wkDogRnNG3UnC446k,3.8,191,41.690715,-87.68133209999999
400,"Harry Caray's Tavern, Navy Pier",ChIJ2y7xkU0rDogRDXFwy2wzMeQ,3.8,1175,41.891486,-87.609304
613,720 South Bar & Grill,ChIJO2ZfH5ksDogR2vbpqF23xRs,3.8,59,41.8730189,-87.6245368
383,Mission Control Arcade Bar,ChIJRYBByobRD4gRBH7IQzZEGx0,3.8,142,42.0081344,-87.66637140000002
371,Chicago By Night,ChIJq7UYSn3MD4gRkhFbS9Jaric,3.8,120,41.938875,-87.76678290000001
15,Little Olive Lounge,ChIJZ8ibnArTD4gRJtnw5Ik9hnc,3.8,64,41.9094085,-87.67621059999999
335,The Boss Bar,ChIJ4bSte7EsDogR4t3a6GtFy4Q,3.8,1243,41.8898994,-87.6312777
820,Goose Island,ChIJodwjryu0D4gRH4A_jBIEPWU,3.8,1049,41.97681499999999,-87.8970683
573,Maddanthony's Bar & Grill,ChIJ1bvwEfAxDogR9dM3_-OpqyY,3.8,17,41.8082917,-87.7081415
56,J & A Sports Bar,ChIJH3bNuYXMD4gRYxAhwVFOQm0,3.9,48,41.9313493,-87.768298
937,Martini Bar,ChIJgcceHFTTD4gRrvf57TePx58,3.9,61,41.8999124,-87.6224862
405,Snickers Bar & Grill,ChIJ-XQv-q0sDogRxM3jDNmGbfk,3.9,1206,41.8907529,-87.628197
273,Bluelight,ChIJi3umq3zSD4gRqDqVKbqhfME,3.9,338,41.94095790000001,-87.687896
267,Jeffery Pub,ChIJT-EgElcoDogR9yTTuYIFrkM,3.9,277,41.7667524,-87.5761479
235,Apartment Lounge,ChIJe7AlZY0xDogRnX7vsXlwjbg,3.9,50,41.8080416,-87.7190234
521,COLUMBUS TAP,ChIJn1T4iagsDogRpiYH_22ZYKY,3.9,335,41.8861637,-87.621083
310,Monsen's Tally-Ho Pub,ChIJzwVzxTXQD4gR3TJN5YJzFLU,3.9,89,42.0193361,-87.6796478
507,Smartbar,ChIJ985ApUzSD4gRu50SYxTyrxE,3.9,378,41.9497764,-87.6587553
605,Offshore Rooftop,ChIJ6dLXoqIrDogRtMtzUVKt-Cw,3.9,1318,41.8918435,-87.60017169999999
816,Bar Louie - O'Hare,ChIJ85DR3PTJD4gRzB6cHXSrsHg,3.9,841,41.9819597,-87.83568420000002
808,Touché,ChIJnwLkWrzRD4gREreJ-KlTEoU,3.9,87,41.9985703,-87.6709983
600,Chi Bar,ChIJI8hF76ksDogR7NdOBvYoTKQ,3.9,8,41.8892096,-87.6195619
735,The Dime,ChIJ37o6Q3TTD4gRwFa5IJJN3F0,3.9,185,41.9233543,-87.6455278
728,Emerald Isle,ChIJr8uFqKDJD4gRhiqKptya6LI,3.9,107,42.0024067,-87.8157868
153,Trader Todd's,ChIJG39EdazTD4gRF8wgReRZb4U,3.9,836,41.9404468,-87.65431249999999
352,Driftwood,ChIJy5CwXszTD4gR2nA4SFoL3YU,4,96,41.9616697,-87.65570489999999
403,Winners Sports Bar & Grill Inc.,ChIJ84w-W14zDogR3TiOYGeMMOo,4,39,41.88030029999999,-87.7724167
13,Twisted Cantina,ChIJ__-vAQEtDogRd83F6HhJHtI,4,280,41.8586752,-87.6606535
370,Sakura Karaoke Bar,ChIJEWd-1GMsDogR_8abGQLeCF4,4,509,41.8530678,-87.63310969999999
298,McGee's Tavern & Grille,ChIJYWHCihvTD4gR4GVwX4o-iCk,4,546,41.9218786,-87.6529197
471,Silvie's Lounge,ChIJS6uAQEDSD4gR4niEGQ_p9C8,4,110,41.9543776,-87.67649250000001
361,Second Story Bar,ChIJB7lSgKssDogRTmPNvcEbd8w,4,160,41.8924338,-87.623243
482,Carolyn's Lounge,ChIJNQD4WbvMD4gRmUDjCHV7LTc,4,211,41.9125671,-87.765973
891,Billy Goat Tavern (Navy Pier),ChIJj3c_ZFIrDogRUxeBbK4b2A0,4,1016,41.8913133,-87.6052302
492,Point & Feather,ChIJGYucZbEsDogRV32lT2JMlKg,4,369,41.8898752,-87.63180559999999
254,The Hangge-Uppe,ChIJpauTz0_TD4gRiHwAoPtRjaY,4,553,41.90329759999999,-87.62919769999999
332,The Windsor Tavern and Grill,ChIJvzCdHhbMD4gR376DHc_Jr-I,4,287,41.9632016,-87.7569116
328,Belmont Tap,ChIJSUC31IHLD4gRfpqoYaHxhR0,4,53,41.9383116,-87.7788041
524,Randolph Tavern,ChIJjcxm9rksDogRq-DGbt1Wtxo,4,1057,41.8846092,-87.6335593
14,LG's Bar & Kitchen,ChIJQ8gKsUbTD4gRFil3hdrc_mM,4,363,41.90983000000001,-87.6344981
186,Late Bar,ChIJA04tdJ_ND4gRuVY7wluCfOw,4,154,41.9393685,-87.7163716
560,Deadbolt,ChIJ7UlUFGPND4gRHD4zTvXPMto,4,144,41.9250451,-87.701055
557,W Chicago - City Center,ChIJYYPnG7wsDogR8KApuOJNQw4,4,1818,41.8795207,-87.6332144
622,Island Party Hut,ChIJcVbb1qksDogRUtChf6KmLXs,4,300,41.8880214,-87.6190513
547,Bristol Lounge,ChIJxV9nmaDND4gR5-JPV1Pkn-4,4,55,41.9371391,-87.7208309
913,Bubbles,ChIJJ_B5FTa0D4gRDI4bGJEdWYE,4,111,41.97535269999999,-87.9005435
162,Celeste,ChIJDwYuZbEsDogRyk4CxG12inc,4,1081,41.88989,-87.6316379
68,Silvana Bar,ChIJt1qBILTRD4gRxyyOKmJM8ok,4,22,42.009967,-87.67455799999999
147,JoJo's Shake Bar -River North,ChIJM7AX2DXTD4gRH2G2hdBDGlk,4,2838,41.889935,-87.6289846
316,Mr C's Midway Bar Inc,ChIJOTJ80wExDogRbyBs4WVOe0Y,4.1,211,41.7785932,-87.739583
300,Ja' Grill Hyde Park,ChIJ16pX1x7TD4gRQ43SjWpWmCs,4.1,1318,41.80049289999999,-87.58862429999999
107,Adamus Lounge,ChIJV8_1jKQsDogRr6dVwsdhC5g,4.1,95,41.8815905,-87.6263712
116,Madison Tavern,ChIJm_qTZ3UtDogRoCSuyTUMkmI,4.1,418,41.8823083,-87.6403843
364,Mother Hubbard's Sports Pub,ChIJZ6EtAq4sDogR1HFg0MbZe6g,4.1,1151,41.8899488,-87.628338
789,Jacqueline's,ChIJg3ZC3aTTD4gRAHkuqzitWog,4.1,154,41.9438429,-87.64527280000001
293,American Ale House,ChIJD5j-c9LPD4gRcyDvyNaedhg,4.1,79,42.0194402,-87.6891668
291,Casey's Corner,ChIJ5T0ZaSDOD4gR3gEtBHZCKWA,4.1,37,41.99747199999999,-87.6985681
398,Tunes & Taps,ChIJAQEWi6jLD4gR4T_tLJjkYRc,4.1,13,41.940525,-87.8071822
342,VU Rooftop Bar,ChIJHe76nSItDogR2XY6olDGPeI,4.1,1170,41.8526719,-87.6227639
124,Whiskey Business,ChIJKXHMk8XSD4gRJwbwxfytC5E,4.1,1002,41.9067467,-87.67156539999999
22,Eva's Sports Bar,ChIJZXzZrRDLD4gRMTm0RjHXuLQ,4.1,47,41.9236323,-87.8054487
435,O'Neil's on Wells,ChIJ_YiNCb4sDogRQlaMeRMQ8Xk,4.1,296,41.8764494,-87.6335063
614,Kitty O'Sheas,ChIJO2ZfH5ksDogR7-6u0OMCNgw,4.1,519,41.8719977,-87.6244854
136,The Fifty/50,ChIJf6JfKLbSD4gRK2J23lfqVNk,4.1,943,41.9029974,-87.6790626
910,Bodega Bar at The Berkshire Room,ChIJ182ima0sDogRc91kHfz-YkQ,4.1,63,41.8922551,-87.6274885
538,Jake's Pub,ChIJO8NA8afTD4gRvdJWxu5Droo,4.1,308,41.9356798,-87.6473796
525,Upstairs at The Gwen,ChIJk3rGOawsDogRn0NQTFp9m7w,4.1,273,41.891259,-87.62534319999999
721,The North End,ChIJHxp9tbDTD4gR4RiHw8bMOpE,4.1,62,41.9501815,-87.64944369999999
515,EL Plan,ChIJQXuM5BkuDogRwTKSqKXjRM0,4.1,38,41.8011975,-87.6880393
160,Burton Place,ChIJl9ckvkbTD4gR1-pEaUrGg8I,4.1,357,41.9090351,-87.63447389999999
219,Cardozo's Pub,ChIJB13mKLosDogR7NEWglf77Kc,4.1,304,41.8833918,-87.6332364
225,La Leña Restaurant,ChIJjQZ5bjnND4gRIxe7cQwKK6k,4.1,284,41.9101116,-87.7212943
723,Fremont Chicago,ChIJPbLTBrIsDogRuLOjM3yNN64,4.1,975,41.890609,-87.628692
226,Vines On Clark,ChIJv9GD67LTD4gRC4MSRkFMvnA,4.1,284,41.9468816,-87.6564539
230,Christmas Club Pop-Up Bar,ChIJm5JSle_TD4gRHd0ooo149zo,4.1,49,41.9449841,-87.65507000000001
440,Charlie's Chicago,ChIJx_GIsbDTD4gR7DrzO8yy6aI,4.1,152,41.9498988,-87.6489525
469,Publican Tavern,ChIJc43hdSe0D4gRcqi4lDOeuy4,4.1,1911,41.976665,-87.9009428
255,President's Lounge,ChIJ3xnnLcYoDogRz36XBMBsDpo,4.2,104,41.7584049,-87.60824509999999
909,The Oasis Tavern,ChIJ_WuwjqjRD4gRw2kA3WFc_Os,4.2,237,42.0059558,-87.6607737
301,Hawkeye's Bar,ChIJ35PmkBstDogR5ttrfkbvADY,4.2,1567,41.8694158,-87.6639314
832,Palmer House a Hilton Hotel,ChIJv-CygqQsDogRfgd52uaGbCI,4.2,10944,41.8803066,-87.6267388
889,Billy Goat Tavern (near United Center),ChIJ8acxcSQtDogRxnEBTTBqyDg,4.2,1546,41.8812273,-87.6658873
827,Emporium Fulton Market,ChIJs3TzE9AsDogRBxcP9xfz7h8,4.2,853,41.8866497,-87.6491947
281,Stocks & Blondes,ChIJgZ8EebksDogRGGZSlPZ0edM,4.2,830,41.882874,-87.6340489
844,Old Town Pub,ChIJLa9qbkbTD4gR6to_2hEbbN0,4.2,233,41.9068911,-87.634422
179,ROOF on theWit,ChIJH7aA-q8sDogREB67iM5kWks,4.2,1659,41.8860414,-87.62762330000001
836,Standard Bar and Grill,ChIJsVYaf8_SD4gRVrbJE3fMuJk,4.2,577,41.9057341,-87.67065389999999
621,Mac Guffins Bar And Grill,ChIJQz0xz7osDogR4eTflghXUH0,4.2,24,41.88375449999999,-87.6290258
363,BAR22,ChIJs8mIF3wsDogRwQQYGEseDfA,4.2,175,41.8516503,-87.6239299
321,Franklin Tap,ChIJMWe7RL4sDogR3KxP_dZRLg8,4.2,902,41.8773351,-87.63495549999999
546,Vinny's Pizza Bar,ChIJp37duccsDogRb1J830qBJDE,4.2,121,41.8842545,-87.6399682
541,Mark II Lounge,ChIJnyjh4yzQD4gRJQ5xg1DMCmQ,4.2,375,42.0170526,-87.69041159999999
540,Vintage Bar,ChIJpSKBjxstDogRZpORMP6WC-U,4.2,714,41.8691983,-87.66354150000001
539,Cerise Rooftop,ChIJs0YMg68sDogRYI8MJZJk3K4,4.2,756,41.8860366,-87.62599279999999
720,Zakopane,ChIJaSUI4s7SD4gRlx_YJ5ftK-c,4.2,77,41.9034311,-87.671314
530,MBar - Millennium Station,ChIJPQtH4aUsDogR88Q4ytNDC-A,4.2,134,41.88483180000001,-87.6242312
506,Slippery Slope,ChIJdy7U9WLND4gRlsn7Bwe_NI8,4.2,743,41.9241004,-87.6990871
620,Heineken Pub97,ChIJsasCCnfSD4gRhzbCRfGo7jA,4.2,71,41.9476433,-87.6952106
616,Queenie’s Supper Club,ChIJD-x-I5wtDogRw8Lc0DJWUxc,4.2,41,41.8807163,-87.67460439999999
475,Rizzo's Bar & Inn,ChIJ2z1ZLrPTD4gRhQUkbvnmUJk,4.2,522,41.94850539999999,-87.6578794
459,Charlotte's Bar & Grill,ChIJ3cd3NvjLD4gRUZVW-xPlUx0,4.2,130,41.9687549,-87.7784896
450,Club Escape,ChIJs0QtRvIoDogR8WrLFFKPegE,4.2,251,41.7588849,-87.587154
436,Tiny Tapp & Café,ChIJUdmKarAsDogRexPkv_0AQEA,4.2,956,41.88713449999999,-87.6301879
595,Jefferson Inn,ChIJBVTGNRrMD4gRPISwjQZZDx8,4.2,97,41.9696488,-87.7625197
430,Whale Tale,ChIJHfVnP-TSD4gR8oVb8hZbizQ,4.2,20,41.9219254,-87.6645712
419,The Owl,ChIJBx1wOnvND4gRaS_15kiHTiQ,4.2,792,41.9272389,-87.70406109999999
417,THE BAR 10 DOORS,ChIJUyr4jh0tDogRDPLoyav0PwE,4.2,601,41.869285,-87.6589137
412,Bridgeport Inn,ChIJA7_EqEwsDogRhm4UfA65p_k,4.2,110,41.8416221,-87.6577197
738,Fatpour Tap Works - Wicker Park,ChIJh8HZ2cnSD4gRTH6nqjWyRaw,4.2,1091,41.9030239,-87.6776167
756,Innjoy,ChIJE6NfZ67SD4gRjZO9aR-80PM,4.2,422,41.903001,-87.6792612
774,Galileo's,ChIJtbDbbJ22D4gRQYZs1cgwClU,4.2,26,41.9811257,-87.905734
397,The Cubby Bear Chicago,ChIJVR_s6bLTD4gRE48xLsrwvIM,4.2,1179,41.9469512,-87.6567149
591,Tradition,ChIJT3ESzrksDogRCI0vouzR9Gc,4.2,374,41.884831,-87.6355576
585,Weather Mark Tavern,ChIJI1QKdIQsDogRjgkYIBdyOE4,4.2,816,41.8618972,-87.623824
354,Jovial Club,ChIJI6sWbO4nDogRDjWyNwksMi8,4.2,202,41.7204483,-87.55088289999999
341,The Renaissance Bronzeville,ChIJfVcjnVMpDogR58fYRkkn8bk,4.2,499,41.8099248,-87.6161937
807,Atmosphere,ChIJlXdMHYbRD4gRxRDyWvBID1s,4.2,101,41.9796704,-87.6681349
323,Declan's Irish Pub,ChIJvUXnnkjTD4gRXgDxhUfj09U,4.2,389,41.9050321,-87.6346992
426,Sluggers World Class Sports Bar and Grill & Dueling Pianos,ChIJb1zKja3TD4gR3x9Jko7j4Yw,4.2,2008,41.94659559999999,-87.6562208
787,The Junction Pub,ChIJkRPfgsAsDogRFYEb7zBRRGo,4.2,107,41.8785106,-87.6385725
0,D.S. Tequila Company,ChIJXwatoq_TD4gRSy8BU4OWIqo,4.2,1187,41.9433522,-87.6495048
357,The Unforgettable Bar,ChIJAz8BOrTND4gRh1-DYyAjr1s,4.2,250,41.95375019999999,-87.7329711
88,Kelly's Tavern,ChIJ1w_CsZ8uDogRAP0pAS108zQ,4.2,103,41.8142688,-87.6406801
102,Caminos de Michoacan,ChIJn1yR26ctDogROZqDTPd8jiM,4.2,384,41.8548424,-87.66843539999999
35,Leader Bar,ChIJj9xhjozND4gRgLBh1IL7uvg,4.2,427,41.9541879,-87.7033518
16,Lakeside Bar,ChIJdbtSorkyDogReSUmm5neif4,4.2,60,41.88492249999999,-87.7136769
121,Redhead Piano Bar,ChIJIYRFg7IsDogRAW0zLguKL-A,4.2,1397,41.8934019,-87.6287308
9,Pint,ChIJH4VqW8fSD4gR1jcj1Hxp_bI,4.2,341,41.9096903,-87.6761233
8,Uptown Lounge,ChIJPdRpuCzSD4gR59UHznFVal8,4.2,506,41.969179,-87.659179
77,Two Zero Three Coffee Bar,ChIJkf7mdq8sDogR4lymjZg4G44,4.2,278,41.8858829,-87.626072
119,Dugans,ChIJD9S2QMMsDogRnACKzdLg6Ss,4.2,382,41.8796093,-87.6474205
118,The Sedgwick Stop,ChIJI_6-XT_TD4gREx74fQSjeNI,4.2,265,41.91149850000001,-87.6387352
3,The Brewery,ChIJS9wcW7DLD4gRYXLj1N2yZWI,4.2,118,41.950348,-87.80752
65,Innjoy Logan Square,ChIJsfAzl57SD4gRyTuzVmhZ5oA,4.2,348,41.9207379,-87.6940719
133,The Butcher’s Tap,ChIJA4BSDU7SD4gRNxKTxbp7k-g,4.3,699,41.9467867,-87.663725
498,LH Rooftop,ChIJYTTn_a4sDogRVVaRtalmGH4,4.3,2851,41.8877738,-87.6253083
449,Brando's Speakeasy,ChIJI0RHOr0sDogRLAa8Yfyy9a4,4.3,1664,41.8772764,-87.6291171
442,Ham Tree Inn,ChIJ07t51qnOD4gRFt0CSDwDiyI,4.3,58,41.9775436,-87.769218
453,Lark,ChIJD20e5K_TD4gRlrkMBeyG2l4,4.3,567,41.9448838,-87.6491223
466,Stereo Nightclub,ChIJ98xxjIXMD4gRq435JSTHyiI,4.3,497,41.9313783,-87.766989
263,The Aviary,ChIJ3e31ltAsDogRZ-NnsEKpkTg,4.3,1201,41.8865074,-87.6519833
467,New Line Tavern,ChIJS-H_g8gsDogREqE0ZhW6Z50,4.3,505,41.8859766,-87.6411552
82,Belford Tavern,ChIJM8JWfqjND4gRVTmo7K9do6k,4.3,67,41.9391894,-87.7273257
266,Galvin's Public House,ChIJF4QeCwjMD4gRXGWT0nlOQes,4.3,240,41.9675,-87.77499999999999
75,The Rabbit Hole,ChIJMfUSlUjTD4gRnbRdA9gELTo,4.3,220,41.9041667,-87.6347222
508,Roanoke Restaurant,ChIJAdXyvrssDogRfPeijP0aa1k,4.3,1411,41.8818554,-87.6319806
510,Ravens,ChIJ6YiwlhLTD4gRAV-E2e-1CZ4,4.3,226,41.9243411,-87.64014259999999
514,Hopsmith Chicago,ChIJ46Gmw0_TD4gRHvJ2iAX0IjA,4.3,943,41.9038304,-87.6293341
520,Hidden Cove,ChIJJYoH0_7RD4gRSXA3S5NI4gA,4.3,257,41.97889079999999,-87.69277919999999
74,Humble Bar,ChIJOc7B51vND4gRio64mbMXvQ4,4.3,204,41.9103372,-87.70300519999999
523,Barrio,ChIJhXG8orEsDogRA9eL9NhvwRE,4.3,1966,41.88905829999999,-87.6306039
117,Mitchell's Tap,ChIJPTFErjksDogR1r4aJ7c7oxg,4.3,338,41.83314660000001,-87.6462912
238,Kincade's Bar & Grill,ChIJqXyQKxnTD4gRgpXzHERVVXA,4.3,385,41.91833279999999,-87.6529202
62,Barra Ñ,ChIJ6XM2TofSD4gRId3zuqO0uXI,4.3,664,41.9356577,-87.6925653
552,Joe's on Weed St.,ChIJr2GMEiTTD4gRt5EY1kGRI3c,4.3,1384,41.9099108,-87.6521578
556,Lucky's Sandwich Co.,ChIJCfJ1h63TD4gRpOl9GwiAuno,4.3,518,41.945325,-87.6551444
501,Frances Cocktail Lounge,ChIJe1yq2cooDogR7PgyqZsVjxg,4.3,544,41.75823700000001,-87.617869
437,Granville Anvil,ChIJ-RVhjp_RD4gRmPUneC53Mvw,4.3,240,41.9944368,-87.65982319999999
278,Lone Wolf,ChIJl9ioScUsDogRQVLSiT4hrGg,4.3,1012,41.8846206,-87.6478059
274,Max's Place,ChIJxeSF5y_SD4gRI98cnu-VRBY,4.3,95,41.9659318,-87.6667111
319,ChiSox Bar & Grill,ChIJsQ7rmxYsDogRQXgQNBV1VjE,4.3,511,41.8310876,-87.6339572
318,Haymarket Pub & Brewery,ChIJweWyPcUsDogRtPwqbtgjTsQ,4.3,954,41.8841667,-87.64722220000002
343,nola bar & kitchen,ChIJb5DcebLTD4gRKxpWA8Do5B0,4.3,424,41.945642,-87.6550278
350,Loop Tavern & Liquors,ChIJcfAmq9LSD4gRfLwDg_vlLK0,4.3,91,41.8961955,-87.66782289999999
366,Cove Lounge,ChIJbYT_03QpDogRrGQBzB5NuYA,4.3,366,41.79537,-87.581899
306,Floyd's Pub,ChIJR6FXtZfSD4gRjJvLCYWO7Vg,4.3,296,41.9174915,-87.6850984
373,The Falcon Inn,ChIJh47YaeArDogRYkju8QL8DpQ,4.3,277,41.7994546,-87.586261
303,Roscoe's Tavern,ChIJbV-noq_TD4gRJKdDjRzXsVk,4.3,1081,41.9434929,-87.64958159999999
379,Mario and Sandra's Bar,ChIJ31a7efctDogRCragIE2AzW0,4.3,48,41.8275798,-87.69490619999999
385,O'Callaghan's,ChIJJTTb8LEsDogRCbELjhuqyck,4.3,1235,41.8899372,-87.6292107
386,Odyssey II,ChIJPTJm7MouDogRF3ycXznG1WY,4.3,335,41.79427889999999,-87.6202486
389,Lizzie McNeill's,ChIJAxWoH1YrDogRWqk5C4h254U,4.3,785,41.8890281,-87.61841360000001
395,Corcoran's Grill & Pub,ChIJtz_kakHTD4gRvZ2uz-D9C2U,4.3,748,41.9116134,-87.6344858
401,The Pony Inn,ChIJgbZhnFnSD4gR0BN1dcTJczQ,4.3,328,41.939787,-87.6701788
408,O'Rourkes Office,ChIJLWqiJtwkDogRx8WvqDj4hdc,4.3,113,41.6920601,-87.6813555
413,Replay Lincoln Park,ChIJ8Yz5zgDTD4gRmYymn9iFpCs,4.3,1837,41.9336737,-87.65372099999999
290,Simone's,ChIJNWZY-fgsDogRZixAtvIp2RQ,4.3,1913,41.8582085,-87.6510277
414,Ricky G's,ChIJ7SlrNdLRD4gRT1OB_gKTm4s,4.3,41,42.0116439,-87.6900345
415,The Reveler,ChIJ9QhNWp3TD4gRk4s5h0Xo6fo,4.3,408,41.9434142,-87.67829280000001
284,City Winery Riverwalk,ChIJ116KJrAsDogRRLCYua_pQuE,4.3,1794,41.8870236,-87.62868540000001
283,The Moonlighter,ChIJhRvjCWjND4gRYhDCdkv3FwI,4.3,689,41.9177332,-87.7073447
282,The J. Parker,ChIJ1bF4CWrTD4gRf3FAlYUHeXI,4.3,1383,41.9152954,-87.6343652
280,Palm Court,ChIJq6o6PwrRD4gRFe5bSOV_7OI,4.3,103,41.9004365,-87.6234056
92,O'Leary's Public House,ChIJS1oIcbQsDogR795gAtiA7dw,4.3,387,41.8920079,-87.6339294
142,Brehon Pub,ChIJxe7ATUvTD4gRqTE4US77ys8,4.3,445,41.8957842,-87.6339433
91,Blind Barber,ChIJfYtck9AsDogRYIKH_m3YCn8,4.3,688,41.88688,-87.6517326
433,Ola's Liquors,ChIJtyhPiMrSD4gRWRCXFm8uNTo,4.3,94,41.8990973,-87.6770178
132,GOLD STAR BAR,ChIJ0YNL287SD4gRNdFqpau8_7E,4.3,261,41.90313889999999,-87.67205000000001
567,Water Hole Lounge,ChIJw7TLwXAtDogR5WgUh5R5gY4,4.3,243,41.8628955,-87.6863077
71,Mom's Place - A Chicago Gathering Spot,ChIJNZDL67IsDogRZGzyXclOOsk,4.3,482,41.8938756,-87.63000110000002
572,Sidetrack,ChIJkZf9mK_TD4gRZ3XmA5zo8Fw,4.3,463,41.9431994,-87.64921989999999
43,Xavier's Club,ChIJsz6vLQkuDogRbwhsIbwDkzM,4.3,53,41.8122189,-87.68474669999999
36,Hangovers Bar & Liquor Store,ChIJmYN3i6_ND4gR-5rKM5TgbnY,4.3,108,41.9454707,-87.72756749999999
733,Roadhouse 66 Gas N' Grill,ChIJ9cVjga7TD4gRtfwZv3TXUwY,4.3,434,41.9453806,-87.65546669999999
740,Elephant & Castle,ChIJS9DQYLwsDogRC4rmbqrg-Lg,4.3,2042,41.8793112,-87.6314087
743,Elephant & Castle,ChIJ7zwFga8sDogR48o0MWz4Jes,4.3,2200,41.8854526,-87.626024
188,Streeter's Tavern,ChIJjx1f4VLTD4gRIa1IGXHSbhI,4.3,722,41.8968657,-87.62625589999999
768,Matilda,ChIJIb2GzqvTD4gRkpZfPDH-ByI,4.3,407,41.9382108,-87.65391439999999
146,Halligan Bar,ChIJ3QxcUhDTD4gR_HTruxpDDso,4.3,387,41.9233575,-87.6461198
770,Ted's Place,ChIJDXtMxl0zDogRoU3wTb92M3U,4.3,330,41.879885,-87.77035599999999
31,Figo Wine Bar,ChIJaUA2b6bTD4gR16K-yMe0LTo,4.3,212,41.9402282,-87.6539734
618,WhirlyBall Chicago,ChIJ36q9du3SD4gRc_oBbj74Fm4,4.3,1867,41.9212227,-87.6739273
775,Lawlor's Bar on Archer,ChIJVUlUUsI2DogRLsoMNHYQtxY,4.3,89,41.7924022,-87.7937325
29,Woodlawn Tap,ChIJSzUcLRUpDogREAI5xWfe6bo,4.3,442,41.7951846,-87.5968482
800,Hook and Ladder,ChIJhUulUxDTD4gR5fN1G7ucgxQ,4.3,208,41.92333989999999,-87.6460387
150,Bobby Love's,ChIJjQDztbDTD4gRftdNGenvv8Q,4.3,226,41.9499862,-87.649442
18,The Dandy Crown,ChIJpTdPExMtDogRmejNxDDrAAE,4.3,126,41.8942026,-87.6525585
841,2Bears Tavern Uptown,ChIJJSjgF33TD4gRdJ-APzgDUho,4.3,34,41.9655079,-87.65921999999999
853,Parson's Chicken & Fish,ChIJFSkvK0bTD4gRgyET_O2Mzk8,4.3,642,41.9265416,-87.64851809999999
888,Brick's Night Club,ChIJH0saZd8yDogR5zP5PVU0pI4,4.3,20,41.8807744,-87.73647009999999
7,80 Proof,ChIJI0zgw0bTD4gR_jDtYsNTZ9E,4.3,685,41.9092926,-87.6348709
158,Pippin’s Tavern,ChIJ6QPIAlPTD4gRvwOcakYkLXE,4.3,761,41.8964793,-87.62662499999999
905,Beauty Bar Chicago,ChIJozGmSdPSD4gRkrB7r79sFZE,4.3,936,41.89624910000001,-87.6641782
181,Irish Eyes,ChIJbX_I9ATTD4gRuS5b90g7UqQ,4.3,138,41.9277439,-87.6516501
205,Sidekick's Entertainment Lounge & Restaurant,ChIJp5R9ijTMD4gRMFuIWAvrW6k,4.3,522,41.9609427,-87.73943709999999
757,City Winery Chicago,ChIJ7ZBcatgsDogRVeUuWDAD0TM,4.3,1252,41.884588,-87.6571111
51,Spectrum Bar & Grill,ChIJYQRyIMMsDogROICaenPt-Qs,4.3,616,41.8782497,-87.64710939999999
145,Scarlet Bar,ChIJGbijdK_TD4gRa-efdPvTxR0,4.3,413,41.9424528,-87.6495078
218,Family Den,ChIJXzkaFCkmDogRJoTyCDaDnkk,4.3,1552,41.7320649,-87.58578
54,Burwood Tap,ChIJDcaVQg_TD4gRl951hxGjVdA,4.3,340,41.9292025,-87.64752469999999
601,The Signature Room at the 95th®,ChIJNbKQElTTD4gRREaOJN5ZUdw,4.3,6459,41.8989565,-87.62340789999999
214,Watershed Bar,ChIJR62ag60sDogReIs8QYL5ePo,4.3,207,41.89267299999999,-87.627871
377,The Curragh Irish Pub,ChIJQSp-raDJD4gREOC3UkEYNBw,4.4,657,42.0030404,-87.8162708
550,Corridor Brewery & Provisions,ChIJjSh3wlHSD4gR0IEFVuxefTc,4.4,648,41.9447567,-87.66414859999999
831,Emporium Wicker Park,ChIJTS6R8sXSD4gRSvagw8grD44,4.4,1646,41.9066223,-87.6717958
25,Vaughan's Pub,ChIJBzKUpQDTD4gRBb7Ta6YCoFc,4.4,260,41.9349961,-87.65381380000001
26,Angelo's Wine Bar,ChIJ2VtXffHND4gR5wYS3NO70v0,4.4,651,41.9613729,-87.70436169999999
27,West on North,ChIJ5y6siqTSD4gR0ZpTDYaSzMk,4.4,274,41.9101385,-87.690118
604,D4 Irish Pub & Cafe,ChIJIZsKeFUrDogR6sdXMWqQsFk,4.4,1729,41.8919592,-87.618871
805,Angie's Tavern,ChIJv-F5MZDND4gRRzbKQZDbcvM,4.4,116,41.9485622,-87.7080438
394,SAVE FERRIS,ChIJHY7We7LTD4gRkS0b5PjY3b4,4.4,246,41.945738,-87.6551798
28,Twisted Shamrock Pub,ChIJzxn4TNkwDogRfFMfbCasqt0,4.4,146,41.7745407,-87.76173229999999
63,Little Bar,ChIJw8VKSlvJD4gRV3FGgUx16JA,4.4,57,41.9874053,-87.79006
411,Crow Bar Inc,ChIJ5UOcpWXYEYgRokEG0q7LbfE,4.4,242,41.7024579,-87.5267738
790,Rebar,ChIJA6EvXa4sDogRDaB-PygnNSQ,4.4,114,41.8888012,-87.6263094
388,Illinois Bar & Grill,ChIJacxyq5oxDogRzEoIKFM1ErE,4.4,873,41.8077251,-87.72740110000001
17,Broken Barrel Bar,ChIJ8fhkRaXTD4gRXW50snZ7jI4,4.4,316,41.9284581,-87.6636339
104,DryHop Brewers,ChIJESGqvqbTD4gR3rgf0uNishU,4.4,671,41.9393174,-87.6441967
367,Replay Andersonville,ChIJncp_r4jRD4gRC6U4EGvEGv0,4.4,1038,41.9797435,-87.6684289
336,Emporium Logan Square,ChIJvxPg9mLND4gRZQkGFIME1b0,4.4,2148,41.9242658,-87.6993292
574,Zebra Lounge,ChIJQVJK40_TD4gRTZkd3Fc25k4,4.4,283,41.9045109,-87.6289137
337,Bird's Nest,ChIJBdU5ZvvSD4gR7dbmL9mSmCs,4.4,914,41.9271507,-87.66352119999999
563,Oakwood 83,ChIJnTHGGhbSD4gRpKgkv0NT6-A,4.4,119,41.9613437,-87.67834789999999
900,Continental Lounge,ChIJ997sQ1UtDogR7Ie2U8UNorI,4.4,295,41.8954799,-87.6968402
339,Glenwood,ChIJm75BQ67RD4gRi_lOaxjPorE,4.4,300,42.0084278,-87.6662917
551,O'Donovan's,ChIJFQp8EWvSD4gRvOcgPz3o1qg,4.4,1123,41.9542895,-87.6813822
576,Lottie's Pub,ChIJuZYRJ8DSD4gRdJuh5-8ngjg,4.4,1317,41.9158706,-87.67623499999999
346,Richard's Bar,ChIJs0N_3s0sDogRIDAcKE_Emfg,4.4,419,41.8909676,-87.6469631
865,United Club near gate C10,ChIJO8thYHG1D4gRUf5jUtNmUJ0,4.4,152,41.97841100000001,-87.910477
351,ROCKS Northcenter,ChIJwY6-whTSD4gR0tvBt8Zw3cw,4.4,428,41.9569931,-87.68089859999999
109,Holiday Club,ChIJu9vXkbXTD4gRv3JmsWtNvq4,4.4,796,41.954588,-87.654726
10,Tin Lizzie,ChIJ28ZDsw3TD4gRo1tSUySzbA0,4.4,383,41.9276928,-87.6415768
577,Loncar Chico,ChIJlef4o_snDogRg5r-huBTZ6k,4.4,255,41.7281974,-87.54672649999999
553,Candlelite,ChIJSbO9-yzQD4gRNrZJaYowzMk,4.4,628,42.0174602,-87.6905589
64,Third Rail Tavern,ChIJfzf319gsDogRc2ySzl53dVk,4.4,359,41.8815227,-87.65566299999999
418,Moody's Pub,ChIJf1OP0p3RD4gR84MgZ4qvyWQ,4.4,1296,41.9894304,-87.6604601
785,Cork & Kerry at The Park,ChIJhznXvRQsDogRty33Gie4y-U,4.4,345,41.8346418,-87.6342023
589,PL Lounge,ChIJebwHgq_ND4gRm5CbNzPQQTY,4.4,336,41.9443527,-87.7274748
737,South Branch Tavern & Grille (The Loop - Chicago),ChIJT_A3rbgsDogREjTZZkQe3_E,4.4,1639,41.8804843,-87.6377693
734,Glascott’s Saloon,ChIJUbfrDBrTD4gRgAbBip9Sxlc,4.4,198,41.92168239999999,-87.648883
517,Red Pepper's Lounge,ChIJGci78KkoDogRnxAHIKyz1DU,4.4,8,41.7367684,-87.61335079999999
590,Bernie's Tap & Grill,ChIJ75qBNLPTD4gRUkVuyBldeBw,4.4,444,41.94881789999999,-87.6579679
473,Tom's Tap,ChIJXWFyXMQ2DogRDMIyxFr5IDo,4.4,124,41.7920735,-87.78950180000001
451,Brudder's Sports Bar,ChIJT1ir_K_ND4gRsizefgP5z5M,4.4,604,41.9465576,-87.7276124
478,Blue Line Lounge & Grill,ChIJGd4yXsfSD4gRpfGAec-TDyA,4.4,701,41.9095818,-87.6777204
486,The Wild Hare & Singing Armadillo Frog Sanctuary,ChIJ_19bjrLTD4gRMkulph9iPKY,4.4,1142,41.9294932,-87.64904949999999
487,The Sandlot Wrigley,ChIJ_U6qd7LTD4gRZWJGD4b73Sc,4.4,102,41.9454781,-87.6549775
489,Lincoln Karaoke,ChIJdXbzE_zRD4gRqH_Hc5e3LGs,4.4,516,41.9819828,-87.69349620000001
79,Licorice Lounge,ChIJ_1hIBagoDogRMzWLr-RXmzg,4.4,178,41.7364165,-87.609349
496,Murasaki Sake Lounge,ChIJb02QDassDogRU8nZRCnnYc0,4.4,268,41.89325830000001,-87.621922
497,The Milk Room,ChIJ3aVOQKQsDogRoBQs2mxSsPo,4.4,147,41.881662,-87.6249685
81,Rabbits Bar,ChIJpZQrziDMD4gRfWd7J0STqUk,4.4,223,41.97517209999999,-87.7521836
579,Rite Liquors,ChIJAxm0Nc7SD4gRUOmEvC-YYN0,4.4,240,41.9031527,-87.66941609999999
741,Kelly's Pub,ChIJx4sh9BvTD4gR9yZTRg_HZB0,4.4,198,41.9216515,-87.6529502
747,Brownstone,ChIJN9aOgGrSD4gR3mPuXbkhlPI,4.4,544,41.9533808,-87.6779202
420,Estelle's Cafe & Lounge,ChIJa4LkpbjSD4gReCyjuHvE0d8,4.4,537,41.9103194,-87.6781056
421,Bruno's Lounge,ChIJId8G4abRD4gRtI9jsm8xUiY,4.4,114,42.00193720000001,-87.6610595
533,The Revel Room,ChIJj2AcQsfSD4gRdCcdxJddLRs,4.4,504,41.90990619999999,-87.676969
531,Steve's Lounge (Catering By Steve's),ChIJs9Wz0VInDogRY5ZgRhHcoxA,4.4,484,41.65530709999999,-87.547519
580,Reggies on the Beach,ChIJB20BV-wpDogRWSfAoXw7Y_Q,4.4,408,41.7813347,-87.573005
422,Marchesa,ChIJQQ_rc7QsDogRHCJWZkamO4Y,4.4,294,41.8918768,-87.6339258
57,The Black Lion,ChIJ8_G3QmPND4gRz-ItaUHjCh4,4.4,127,41.9254408,-87.7016817
58,Broken Shaker at Freehand Chicago,ChIJn3m9mK0sDogR3IveoCioFU4,4.4,641,41.8922609,-87.62733469999999
428,double bubble,ChIJfdoiV57RD4gR1JvaHdbiZlY,4.4,153,41.9920161,-87.6605435
765,Lincoln Tap Room,ChIJd0_FF1bSD4gRn2lSmDREdPM,4.4,185,41.9364032,-87.66429660000001
762,Lush Food & Drink - West Town,ChIJLyDZqdTSD4gRIaOlwyfANi8,4.4,139,41.8962871,-87.6629627
571,Shinnicks Pub,ChIJf5C_qCQsDogRLW3Rt1dlnXM,4.4,107,41.8254589,-87.64367340000001
751,South Branch Tavern & Grille (The Loop - Chicago),ChIJT_A3rbgsDogREjTZZkQe3_E,4.4,1639,41.8804843,-87.6377693
749,Goose Island Brewhouse,ChIJGUsemCHTD4gRdrBxeW4gyDs,4.4,868,41.9132345,-87.6544328
528,Ph.D Pub,ChIJAZKpJvAsDogRloRYUQ3C9sI,4.4,316,41.86554,-87.646738
329,Little Toasted,ChIJGypyecAsDogR8K1DsdphdaA,4.4,337,41.8776503,-87.6386301
155,Meeting House Tavern,ChIJndazcVjTD4gRimEFGWVA_AU,4.4,62,41.9732108,-87.6679241
227,The Harding Tavern,ChIJl6sh33DND4gRShgsZxQe5zU,4.4,906,41.9307608,-87.7103929
224,Frank's Bar,ChIJ6aqhSwzTD4gR7eML6XTX568,4.4,209,41.9280005,-87.6417778
253,Randy's Lounge,ChIJux_cAscoDogRvawxT8SnHh0,4.4,156,41.7581104,-87.6055635
189,The Berkshire Room,ChIJ3YEGma0sDogRkq1rGH3cdeM,4.4,378,41.892255,-87.6274987
216,Burlington Bar,ChIJszoj0W3ND4gRT2DogQ3Ea6c,4.4,342,41.92452249999999,-87.7131959
134,Sully's House - Sports Bar - Event Space - Roof Deck,ChIJD1Yz2yTTD4gRf2ciyEotG-0,4.4,405,41.9086537,-87.6491327
256,The Reservoir,ChIJozLQ7c7TD4gRTSdwCiNGXck,4.4,650,41.9619258,-87.6517746
139,Marquee Lounge,ChIJCWjGfxfTD4gRXL5PafwyPfg,4.4,212,41.9180679,-87.64830289999999
296,Off Site Bar,ChIJF01ldnrND4gR9g4rbH_ztts,4.4,16,41.9301043,-87.70723579999999
231,Phyllis’ Musical Inn,ChIJpWoP1s7SD4gRk-RBu6FJmpU,4.4,272,41.9034098,-87.6725426
140,The Bassment,ChIJFzfFcrYsDogREyO0d42z55U,4.4,754,41.8897738,-87.6378787
143,Z Bar,ChIJHQVwOVPTD4gRRHF6Oa0P62M,4.4,372,41.8959833,-87.6250762
297,Wild Goose Bar & Grill,ChIJGzQWcxTSD4gROEl-Bb7YDfE,4.4,820,41.9594694,-87.6823127
201,The Slide Bar,ChIJS5L0p28tDogRe1IAEXWzZiw,4.4,159,41.8691152,-87.68590739999999
126,No.18 Karaoke bar,ChIJZ6Aqt2MsDogRMirIjIfyWic,4.4,958,41.8526008,-87.6317273
262,Lange's Lounge,ChIJpc_h4FHSD4gRQdqPOeKk33k,4.4,136,41.9453719,-87.6641291
312,Weeds Tavern,ChIJ7TCEoiTTD4gRvfxDyYUpnvs,4.4,270,41.90996699999999,-87.64929819999999
164,Friar Tuck,ChIJpeHLPafTD4gRSf4meBf1_oQ,4.4,458,41.9368302,-87.64444859999999
302,Le Piano,ChIJW0fpRvDRD4gR3tAJvzroogk,4.4,234,42.00873319999999,-87.6662725
292,Estereo,ChIJZU1jWWPND4gRcQ1WZe2BsXI,4.4,1057,41.9257061,-87.70210999999999
180,Wrigleyville North,ChIJgxnySrTTD4gRydL_N9f7S4w,4.4,169,41.9528453,-87.6546769
209,Dino's Bar,ChIJbbPVUbzRD4gRpWpdQ6iP8LM,4.4,182,41.9982262,-87.67089229999999
242,The Store,ChIJhTOs1hnTD4gRODmGvCvD9lM,4.4,165,41.9183346,-87.6486939
322,O'Hara's Tavern,ChIJGySGTXjYEYgRohmJIZj7-4g,4.4,48,41.7026472,-87.5372615
211,Filonek's Bar and Grill,ChIJHZFN7kjJD4gRd5dRv1ggkgk,4.4,120,41.9942708,-87.7844894
131,MCM Pub & Grill,ChIJOaQl40XMD4gR1iIskWMbiPw,4.4,284,41.95178910000001,-87.7475651
148,Bangers & Lace Wicker Park,ChIJLRbpVM7SD4gRGbrDwLRHcrQ,4.4,769,41.903454,-87.67030199999999
244,M Lounge,ChIJFQylzoUsDogRYqM8igdcdc4,4.4,649,41.8613949,-87.6260241
149,Alice's Lounge,ChIJzckFfp_ND4gRPWV-VyT4GmE,4.4,363,41.939327,-87.7172213
159,Pops for Champagne,ChIJRUaRg60sDogRrA_dnDjeqA4,4.4,489,41.8926251,-87.62794520000001
12,All Rise Brewing Company,ChIJi22l9C8tDogRYclrE8vhNsA,4.5,81,41.886408,-87.66672460000001
265,Bungalow by Middle Brow,ChIJk08hQGDND4gRF127czm-cpc,4.5,599,41.9177853,-87.6988914
11,Turtle's Bar & Grill,ChIJqYYJXhMsDogRWuCPkY0NxKk,4.5,455,41.8346954,-87.6330665
457,Draft Bar Chicago,ChIJLyK7rUPKD4gRDG4pHEljfuA,4.5,195,41.9519971,-87.8326819
458,Shamrock Club,ChIJwb-Kv7YsDogR1n6VQBVvJnM,4.5,501,41.8892707,-87.6345443
49,Local Option,ChIJ64K7tx3TD4gRp6_ud23I3V0,4.5,446,41.9217944,-87.6561682
86,Babe's On Milwaukee,ChIJbxKCaT7MD4gRefC2edFAI5A,4.5,115,41.961125,-87.7550673
570,Three Dots and a Dash,ChIJiX4KgLEsDogR8gugSnSptzY,4.5,4835,41.8902505,-87.6307448
527,Butch McGuire's,ChIJ_4v36k_TD4gRtmUioIQSx4Q,4.5,833,41.9040227,-87.6295963
272,Roscoe Village Pub,ChIJT-otUG_SD4gRs5CzzVM_Ma0,4.5,193,41.94665819999999,-87.6832944
87,Coach's Bar & Grill,ChIJf0uWCc7JD4gR8LkODDtumhw,4.5,105,41.9939402,-87.8014694
448,Punch House,ChIJJ5i7xP8sDogRZHQ5geS87d8,4.5,376,41.8578384,-87.65751619999999
52,O'Donnell's,ChIJ03tRA8zND4gRvGIa7t5APM8,4.5,148,41.9624504,-87.7321853
447,Homer's,ChIJ027lhH4uDogRksnsOfi6404,4.5,127,41.8118354,-87.6610041
217,Roundhouse,ChIJQ2rkFCLND4gRs9OCZwQ9Tk8,4.5,85,41.92750969999999,-87.70452189999999
431,Shakers on Clark,ChIJo2xn3KjTD4gRvXJD_U5SFCU,4.5,170,41.9392354,-87.6504025
592,The Galway Arms,ChIJk3gcow3TD4gRG-uhUeIa1BE,4.5,689,41.9266021,-87.6413487
90,439 Nightclub,ChIJnfeqkyktDogREJq4lj3_xso,4.5,54,41.8901562,-87.659526
582,SUSHI DOKKU Japanese Restaurant [ Booze Box Lounge ],ChIJa1x1zNosDogRWaWIsW63ktg,4.5,1035,41.8840703,-87.6484589
168,Nisei Lounge,ChIJSwh78q3TD4gRDoydZPlZLdI,4.5,320,41.9447513,-87.65406449999999
271,Spilt Milk,ChIJAbLSZp3SD4gRfZUdo9D0B5w,4.5,485,41.9250048,-87.6973089
215,Marge's Still,ChIJ6ask8D_TD4gR1hvoo5a4rac,4.5,332,41.9146024,-87.63889809999999
169,Irish Nobleman Pub,ChIJYa6LnistDogRSvisAY98Vt4,4.5,519,41.8933279,-87.6620903
444,Golden Teardrops,ChIJI_lZJZ7SD4gRaNQjx0sXjHE,4.5,35,41.9196289,-87.6971192
817,Beatnik West Town,ChIJN0L8q9LSD4gRNSMWSKNjIM0,4.5,1708,41.8961966,-87.6676892
564,Tapster Lincoln Park,ChIJ-QZxTgLTD4gRPbwOtA7YUpc,4.5,233,41.9289008,-87.6560078
502,Tripoli Tap,ChIJw3ZkzB_TD4gRF_L_s90iBEQ,4.5,187,41.9179552,-87.6571644
862,Remedy,ChIJn3TrXr3SD4gR8WyHQ1GbLz0,4.5,471,41.9161293,-87.68656589999999
873,Billy Goat Tavern (The Original),ChIJH58hH6wsDogRMwsr0TdEj4U,4.5,3720,41.8903294,-87.6246338
505,Easy Bar,ChIJ87KAysnSD4gR9TRulBpTq-I,4.5,378,41.9033373,-87.67661319999999
249,Damen Tavern,ChIJGYJzcjUtDogRyEsCVWhaXMs,4.5,302,41.8942808,-87.6768865
509,Mesler Kitchen | Bar | Lounge,ChIJc5dq1Q8pDogRBV4wNDyBHeU,4.5,548,41.7994064,-87.5914411
247,The Globe Pub,ChIJbUkZIEDSD4gRhF9YMlE-baI,4.5,879,41.9543896,-87.67774639999999
511,Finley Dunne's Tavern,ChIJ094bXFvSD4gR_lcLPLR-tJw,4.5,172,41.9448075,-87.67241039999999
512,Club 81 Too,ChIJXXVW36rYEYgRuqXMb0CQ26g,4.5,263,41.6555881,-87.53718219999999
513,Hopewell Brewing Company,ChIJr0DGTnHND4gReLcydG4y77I,4.5,296,41.93125999999999,-87.71122659999999
534,Sunnyday Tap,ChIJwRIq3i7MD4gRfNBwbnpTgA0,4.5,93,41.9707394,-87.74419859999999
516,Central Park Bar,ChIJ_Xb9jG_ND4gRXqZ0vCyIiNk,4.5,157,41.9345662,-87.71758729999999
518,Sheffield's Wine & Beer Garden,ChIJ2fWQFazTD4gRX_abZ0iwjQM,4.5,1331,41.9415908,-87.6543409
868,Theory,ChIJ20IN_rEsDogRzrIp-_d1lUk,4.5,1027,41.8899304,-87.6285525
240,Green Eye Lounge,ChIJ9ZRA-ZfSD4gRYrwN97Y3o9Q,4.5,412,41.9166087,-87.6876479
172,Chicago Sports Bar & Grill,ChIJcan5q5wxDogRxN-hp3us06M,4.5,116,41.8076646,-87.7323516
500,Toons Bar & Grill,ChIJwb6ObUnSD4gRb_4djbHmLBA,4.5,688,41.95244599999999,-87.6639689
252,Farraguts on Clark,ChIJnRxpeojRD4gRnRcCPAtYf6w,4.5,268,41.9774089,-87.6685218
883,Park West,ChIJkYGVPGvTD4gRM21i5GwFMQA,4.5,971,41.918591,-87.63738099999999
264,Little Joe's,ChIJH9XYc-QsDogRu34A3VzLBBI,4.5,226,41.869369,-87.65278339999999
470,Savemore Liquors,ChIJ-dMH1WrSD4gRzsJIpJdDYW8,4.5,99,41.95573,-87.6800095
84,Stella's Tap,ChIJ75qCjLLSD4gRcUI5VYYXY6M,4.5,108,41.8985787,-87.6867118
558,Bar Allegro,ChIJT68W9bksDogR8m4Tc2VuJ2s,4.5,57,41.8842311,-87.63374639999999
286,Porter Kitchen & Deck,ChIJp6p38scsDogRGuXI3DnqDfU,4.5,464,41.88513400000001,-87.63834680000001
555,Horse Thief Hollow,ChIJHc-WwCMlDogRTeP3gtGcwNQ,4.5,498,41.703866,-87.68194799999999
166,J9 Wine Bar,ChIJt64NKhjTD4gRURdBELDpnoQ,4.5,189,41.91775,-87.64833829999999
461,Paddy Mac's,ChIJ2ZyPBsjND4gRHtrtZlJuxGE,4.5,414,41.9571689,-87.7275434
477,Flo & Santos,ChIJ5TIuK4UsDogRiwtT4Kplo7w,4.5,1883,41.8653731,-87.6262352
228,City's Edge,ChIJ4bJirsDOD4gRHBc7Q6VsMvw,4.5,318,41.9974962,-87.7612262
480,The SoFo Tap,ChIJUztUhCjSD4gRnZEajxMfo7Q,4.5,242,41.9724308,-87.6676099
549,The Levee,ChIJwfINYRrND4gRQR8divCiysY,4.5,124,41.9243232,-87.7282453
233,River Shannon,ChIJbbO35hTTD4gR3NtCvDJKt7M,4.5,327,41.9182035,-87.63988239999999
488,The Bar on Buena,ChIJCSmF2cvTD4gRhWarS4-H4sA,4.5,909,41.9586012,-87.65358839999999
135,The Green Mill,ChIJ5ywykizSD4gRX8IVtWSf3OI,4.5,3464,41.9692028,-87.6599222
493,Martin's Corner,ChIJR07tq5gtDogR5uqv-DJHCSM,4.5,260,41.8513254,-87.67814010000001
259,Bucktown Pub,ChIJg7e8LujSD4gRo4aCZ8YOspo,4.5,318,41.9161706,-87.6701707
93,Home Tavern,ChIJC84rtf_SD4gRdHnoFNctt50,4.5,32,41.9331683,-87.6597891
893,Lucy's,ChIJa3ZXUebTD4gRFH_hCD_gjUc,4.5,787,41.90056000000001,-87.696609
607,SPIN Chicago,ChIJ9fuVJa4sDogRNnOHAFsE8gk,4.5,880,41.8886781,-87.62831109999999
356,Village Tap,ChIJo1q4_2bSD4gRV6gJmagv6Q8,4.5,601,41.943072,-87.6805961
23,Cobra Lounge,ChIJJ2QQ9S8tDogRRMruQ74TVmo,4.5,855,41.8863754,-87.66680579999999
358,Christina's Place,ChIJm_Bm55HND4gRcViRI60ulNA,4.5,271,41.950193,-87.70773109999999
1,Monsignor Murphy's,ChIJ9cM3JafTD4gRrZr5H-jjH1w,4.5,217,41.9371401,-87.64410579999999
360,Racine Plumbing Bar & Grill,ChIJS3uV0QPTD4gR7GFWgUnRvIY,4.5,164,41.92993140000001,-87.6552268
171,Jack's Place,ChIJ7asI0PUsDogRVZ5tTEZEo-Y,4.5,13,41.85790590000001,-87.6427772
105,Golden Dagger,ChIJq0hIZgXTD4gR-_OMpcsfGco,4.5,333,41.9268414,-87.6486786
365,2Twenty2 Tavern,ChIJddjPC6MsDogRoSaVdzsMYFU,4.5,860,41.8789036,-87.62641359999999
912,Loafers Bar,ChIJ54OD9QbSD4gRKyvPqQmnMrg,4.5,169,41.9687525,-87.6939453
368,Jacaranda,ChIJVQRkrmkyDogR_i4LuUFdUu8,4.5,133,41.8444908,-87.7152281
193,Monk's Pub,ChIJw1mgWLcsDogRha-bKTpygK0,4.5,2158,41.8856081,-87.6342803
33,Goldie's Pub,ChIJ2xpV7EHSD4gR533kd5xHEbQ,4.5,133,41.951602,-87.67674579999999
194,Murphy's Bleachers,ChIJZ7VOx7PTD4gRh68QMrg0TZA,4.5,1053,41.9489122,-87.65420879999999
372,The Green Lady,ChIJ31SIs1vSD4gRGCgmL-ziolQ,4.5,234,41.9423064,-87.6706397
195,The Atlantic Bar & Grill,ChIJc4pNzQPSD4gRsDsY-sB3KuU,4.5,333,41.9734557,-87.6918441
375,F. O'Mahony's,ChIJ89k3p7DTD4gRN715mVxTBFA,4.5,446,41.9493302,-87.64833879999999
304,Claddagh Ring Pub,ChIJS1ik_PfRD4gRJcHZlbpfpTk,4.5,171,41.9760557,-87.6871209
355,Five Star Bar,ChIJ7RB-UdPSD4gR0VhtxMG-ElA,4.5,643,41.896379,-87.6634469
378,Fadó Irish Pub,ChIJ_ZjZtbMsDogRYGR0r-lg7hk,4.5,2094,41.891759,-87.63129699999999
767,Cheesie's Pub & Grub - Lakeview,ChIJ6z5a_KvTD4gRHdSiXi6GRLU,4.5,2059,41.9401105,-87.6538072
185,Barney Callaghan's Pub,ChIJIwkwHyElDogRc3Mvy9u790Q,4.5,155,41.7002394,-87.6817288
327,L & L Tavern,ChIJL2CfKqnTD4gRw-AM6Vd1xHU,4.5,242,41.940224,-87.6507566
173,First Draft,ChIJF8TLr5csDogRo_Kq9TvdjHo,4.5,1160,41.87345699999999,-87.63048409999999
24,Burke's Public House,ChIJK2V-ioHRD4gRkttmLYlapbk,4.5,587,41.9800814,-87.659762
331,Big Joe's,ChIJVwOKiIrRD4gRhXPjHp9wIcw,4.5,186,41.9762491,-87.6755392
177,C.B. Dive Bar (Club Belmont),ChIJqcwcY_jKD4gRfOA43uHAJ_8,4.5,135,41.93797199999999,-87.8231765
333,Alulu Brewery and Pub,ChIJY1EajKktDogRGAw87A-S9NQ,4.5,468,41.8547407,-87.6635555
334,IIT's The Bog,ChIJtU_KVg0sDogRUU7X9jUoxIk,4.5,203,41.8353544,-87.6282624
821,Replay Lakeview,ChIJX_Ws56_TD4gRuEXQI4OZyO8,4.5,631,41.9447789,-87.64927139999999
802,Reggies Chicago,ChIJVUmkEX0sDogRzm1DQOACx-g,4.5,3846,41.853918,-87.6268523
317,The Sixth,ChIJyU2SuRvSD4gR_BCL2GuYA44,4.5,317,41.9689684,-87.684308
112,The Graystone Tavern,ChIJXWvF8a3TD4gREr9Us5SfzXw,4.5,402,41.9447873,-87.654124
916,Nicks Beer Garden,ChIJnZOajqXTD4gRHosDC8F_-bU,4.5,2,41.9089865,-87.6755674
315,The Lodge Tavern,ChIJD4HnwU_TD4gRga2LMOXKxu8,4.5,353,41.9038271,-87.6295107
182,Kerryman Irish Bar & Restaurant,ChIJwTDt37IsDogRYpIdlFhcKqE,4.5,1302,41.8941684,-87.63097259999999
784,Del Toro,ChIJufxarFksDogRmZafmauuI5E,4.5,947,41.853215,-87.6463704
347,Alma,ChIJPVm3ILPTD4gR1ktNmhoVyFk,4.5,206,41.9478414,-87.657201
779,Easy Street Pizza & Beer Garden,ChIJuexTO3DMD4gRvCOuNBFLUc8,4.5,772,41.94921000000001,-87.7670229
769,CH Distillery,ChIJk1_wbMYsDogRetsg_ee9jLE,4.5,459,41.8846382,-87.6422109
34,The Drifter,ChIJxyOjRrUsDogRER62aX-rNJE,4.5,612,41.8945627,-87.6374065
125,Four Shadows,ChIJneyuaPfSD4gRjOMzEEY3Oso,4.5,193,41.9322967,-87.668706
72,Sutherlands,ChIJvResB2zMD4gR3VPSfd03xe8,4.5,804,41.9530117,-87.7617277
615,Lazy Bird,ChIJSS4mYMAtDogR5RSSvQvzP8Y,4.5,323,41.8858183,-87.6493369
46,Edelweiss Tavern,ChIJ26Yl2KbND4gRgPZWMmeGbkQ,4.5,130,41.9392592,-87.72275499999999
44,Cole's Bar,ChIJQ_ORYGLND4gRxGOgGm82S10,4.5,440,41.9236614,-87.6988064
41,Victory Tap | South Loop,ChIJK9f2jYQsDogR8GewAw26JRM,4.5,832,41.8635036,-87.6245367
295,Live Wire Lounge,ChIJeZFyxK7ND4gRBnHNJGlTuoA,4.5,390,41.9429182,-87.7303116
129,Cody's Public House,ChIJlay0_VjSD4gR1Jis9_yuS5c,4.5,245,41.9380619,-87.6709293
409,Harrigan's,ChIJ23iRyQfTD4gRuB5MSGDrMnA,4.5,182,41.9332787,-87.64916219999999
617,Miller Lite Beer Garden Grove,ChIJ2y7xkU0rDogRsc6mGoG7gEk,4.5,2039,41.89162839999999,-87.60039280000001
392,Metropolitan Brewing,ChIJE5HV333SD4gR3o-R-4oxhvU,4.5,664,41.93758589999999,-87.6913112
38,Boulevard,ChIJP5Lnv6bSD4gRDsu1vliKRUU,4.5,300,41.9101035,-87.6938605
95,Resi's Bierstube,ChIJT1RF4GrSD4gRTvdkBgdCLzY,4.5,317,41.9543768,-87.6801742
611,Headquarters Beercade,ChIJfds8EEvTD4gR4NHirhe7O3c,4.5,3507,41.8973175,-87.6348622
130,Small World Bar and Grill,ChIJRaAVWoYnDogROstMQqltsVw,4.5,378,41.7026368,-87.54270450000001
289,The Green Room Tap,ChIJIYM32f8sDogRgTOymzyrV6o,4.5,206,41.85774139999999,-87.65779580000002
19,Mac's Wood Grilled,ChIJKYbB0c7SD4gR7HHZiiolQsw,4.5,354,41.9031233,-87.6725111
127,Liberty Lounge,ChIJYao2NHvSD4gROWE7QBVSIaI,4.5,126,41.942496,-87.687843
200,Newark Nook,ChIJ3wsx0hTJD4gRG2QaO5durJg,4.5,83,41.9980321,-87.7989087
609,Lo Rez Brewing and Taproom,ChIJXRqXiFYsDogRT_vZd5J7kuw,4.5,241,41.8537611,-87.6527897
384,Reggies Chicago,ChIJVUmkEX0sDogRzm1DQOACx-g,4.5,3846,41.853918,-87.6268523
535,Big Hill,ChIJu2jEX-PPD4gRmpaGEvl3gDM,4.6,179,41.9829406,-87.7116739
584,Lagunitas Brewing Company Chicago,ChIJ2zwRJHktDogRqklMbd19NaY,4.6,1161,41.8578818,-87.69211469999999
45,Websters Wine Bar Chicago,ChIJTa5exeXSD4gR3E0CMxIOz2U,4.6,323,41.9289723,-87.7069424
608,Revolution Brewing - Brewery & Taproom,ChIJfdLUU5vND4gRCwLzlxJQN00,4.6,573,41.9421459,-87.7078993
47,Sky Ride Tap,ChIJc_cMoL0sDogRRYFpXuZTqW4,4.6,150,41.8767764,-87.63105759999999
55,Fat Cat,ChIJKSm9gyzSD4gRGyxvvyp9Rso,4.6,2277,41.970098,-87.6599373
594,R Public House,ChIJe53KQk3QD4gRJLZOGDPd0ck,4.6,918,42.01615169999999,-87.6685854
170,Clover Sports and Leisure,ChIJmx-c6M0sDogRyMg6rzbB9cA,4.6,215,41.8913213,-87.6468015
163,Big Chicks,ChIJ13VBl9XTD4gRHuT8GYhnQhk,4.6,642,41.974027,-87.65511169999999
151,Wild Blossom Meadery and Winery,ChIJSUWeJ3slDogRRKv2J1FusXY,4.6,535,41.7296638,-87.6672458
206,Sovereign Liquors,ChIJ2Qxpf5_RD4gRFFwD0uhS2Ys,4.6,131,41.9947616,-87.6606015
137,The Whistler,ChIJbdGdPmPND4gRFCl6afkm-zI,4.6,697,41.925318,-87.7010689
210,The Violet Hour,ChIJazuRe8fSD4gRJeLBiMM_Izg,4.6,1811,41.9090947,-87.6775758
806,Cobblestone,ChIJ5bKeCq3TD4gRo5fGedZ9T70,4.6,162,41.9605818,-87.68310199999999
48,Podlasie Club,ChIJg5xW1ArND4gR1bkkFoiMR4s,4.6,91,41.9343552,-87.7173972
542,The Hideout,ChIJibbqZN7SD4gRcL9eytUwVzM,4.6,932,41.9137802,-87.6624977
566,Schubas Tavern,ChIJN6FVo1bSD4gRSQOR_0qo3hM,4.6,1124,41.9396875,-87.6636293
204,Ricochet's,ChIJFTtaqBrSD4gR3tN2pC65Jc8,4.6,219,41.9660406,-87.6870095
565,The Walk In,ChIJebB2J3HND4gRP-OL9m_Wq_s,4.6,421,41.9307868,-87.70999719999999
562,The Other Side Bar,ChIJfWhzpA3TD4gRI_lh7qWgXuM,4.6,195,41.9264811,-87.6411974
196,Lizard's Liquid Lounge,ChIJT9lNBI3ND4gR8R4PI-5oR2o,4.6,240,41.9541591,-87.7054533
852,Sparrow,ChIJwUe92k_TD4gRNJ33OJuJQ-M,4.6,561,41.903301,-87.6290556
60,Holloways Bar,ChIJWW6djbEsDogRbPvGtgd84Eg,4.6,26,41.8896475,-87.6298595
606,Great Central Brewing Company,ChIJCfNEDDotDogRuLSUh60LGoE,4.6,202,41.8859077,-87.6716386
61,Lemmings On Damen,ChIJN80x9r_SD4gRAX_m6qGtFoc,4.6,184,41.9152755,-87.6777318
202,Gannon's Pub,ChIJC-x5dRTSD4gRMTEm4TZOwQQ,4.6,210,41.9594947,-87.6826903
223,United Polaris Lounge,ChIJKSwKH_y1D4gRacr8usAx2EI,4.6,155,41.9788723,-87.9105173
834,Black Sheep,ChIJiZvUncIJXUARmHIbFK3JsR0,4.6,311,41.9903116,-87.6935671
752,Skylark,ChIJuywNsFksDogRfajNADmCRIA,4.6,650,41.8527778,-87.64638889999999
835,The Lobby,ChIJY73MNVPTD4gRkeoaRRQ1nng,4.6,288,41.8959951,-87.6251197
229,Kuma's Corner,ChIJL-UoG4HND4gRceAwWwZsgso,4.6,3820,41.93956439999999,-87.70044209999999
578,Galway Bay,ChIJs4t8UgrTD4gRI8u1YVCQXGg,4.6,499,41.9329614,-87.6416023
191,Gallery Cabaret,ChIJ56maU5bSD4gRPmdOtIU30pQ,4.6,332,41.9182697,-87.68512439999999
40,Taylor Street Tap,ChIJqYqg2RctDogRKDb2JZd2A8s,4.6,122,41.8694667,-87.6614934
761,Revolution Brewing - Brewpub,ChIJsxosZWLND4gRH7vbeVKbuLg,4.6,3842,41.9236634,-87.6980619
203,The Inner Town Pub,ChIJg2j7isnSD4gRuOcpVqAF89Y,4.6,244,41.9013025,-87.6761655
581,Bernice's Tavern,ChIJG012bzgsDogRf--lp9gDsIM,4.6,232,41.8352815,-87.6463362
545,Lighthouse Tavern,ChIJByyauqzRD4gRLvYlhRm-l8w,4.6,120,42.0141147,-87.6635742
165,Logan 11 Bar & Kitchen,ChIJXUgV9Z3SD4gRLVz3vbRvRMI,4.6,1493,41.9226072,-87.6975037
199,Bob Inn,ChIJs3cJnJzSD4gR84AERJoAu-c,4.6,168,41.9247034,-87.69298839999999
543,Uncle Bobby's,ChIJD-kqXlTfEYgRJFSaqjr4sAE,4.6,42,41.6519837,-87.53713839999999
187,Frank and Mary's Tavern,ChIJZx6UBYfSD4gRt2fD9GMnyfI,4.6,226,41.9342413,-87.69060859999999
619,Winter's Jazz Club,ChIJc08qw1UrDogRVCCFCLQ-9yE,4.6,599,41.89080269999999,-87.6172033
250,Chief O'Neill's Pub Restaurant Beer Garden,ChIJdfNpBYXND4gRKukIKqAEa5s,4.6,1449,41.9445802,-87.70553749999999
6,The California Clipper,ChIJdTU0e6rSD4gRaZocBXY-87M,4.6,615,41.8994795,-87.69696119999999
106,Max and Issy's Pizzeria,ChIJ2xZNAwHTD4gRWSPNSSFNNMo,4.6,571,41.9327083,-87.65506669999999
94,Map Room,ChIJk6WVC5XSD4gRxhZ8j-A-loE,4.6,871,41.9176173,-87.67980589999999
108,O'Shaughnessy's Public House,ChIJO10QtzzSD4gRvAgPUMISfhI,4.6,847,41.9650582,-87.67388679999999
935,City Hyde Park Apartments,ChIJQ98uKm4pDogRwRflY_QPSX8,4.6,35,41.80209929999999,-87.5884355
393,aliveOne,ChIJjxwmGAbTD4gR0AD4slTcXCg,4.6,390,41.9314445,-87.6486857
416,Surge Coffee Bar & Billiards,ChIJL13bLOzND4gR9nHtZCUGoUE,4.6,614,41.9610518,-87.7099111
446,The Nest Bar & Eatery,ChIJi_UVLbzLD4gR7z8clyYNEAc,4.6,422,41.9526444,-87.7985587
156,Carol's Pub,ChIJLwPlvy_SD4gRqEJ181lAUhQ,4.6,569,41.966917,-87.66692169999999
353,Cork Lounge,ChIJ8XR6GEPSD4gRP_g4rsUHoOM,4.6,242,41.9470818,-87.6748868
110,Prost!,ChIJY46JeATTD4gRKEvNOVNz5WM,4.6,1102,41.9284563,-87.6531625
460,Kasey's Tavern,ChIJfdapg5csDogRO3rgghQhUaY,4.6,800,41.8733028,-87.62899089999999
462,The Pub,ChIJHR4-4hYpDogRdvndpJksKfM,4.6,164,41.7879827,-87.5954402
463,Simon's Tavern,ChIJs5ooE4jRD4gRZzun7D0FyLU,4.6,508,41.9765833,-87.66869439999999
313,BATSU! Chicago,ChIJn0ISwOTTD4gRqnNcfcXrM3Q,4.6,42,41.910072,-87.63430699999999
455,Adams Street Brewery,ChIJD2qt8UotDogRGD52rCgUD7o,4.6,107,41.87923199999999,-87.6283942
429,Gamblers,ChIJdUaZ6tDND4gRkFsjSM5t01Y,4.6,116,41.9703848,-87.7282287
157,ERIS Brewery and Cider House,ChIJmTI6V7TND4gRmzJVQJ2jMnI,4.6,2173,41.9538878,-87.7342515
270,Front Bar,ChIJh1Qq1yLTD4gRET5zQa9lqM4,4.6,171,41.91290540000001,-87.64847189999999
380,EZ Inn,ChIJo6-UkrLSD4gROMzVRAjnfqc,4.6,358,41.898209,-87.6865794
376,A. J. Hudson's Public House,ChIJtTepCUbSD4gRDYMgHBtsQvs,4.6,691,41.9507798,-87.6686854
427,Maria's Packaged Goods and Community Bar,ChIJNdcMrkksDogRS_COh3n2vNA,4.6,1325,41.8380756,-87.6510328
432,SWIG,ChIJk6Xb98bSD4gRohNq2uKmnR4,4.6,346,41.9086997,-87.6744362
279,The Rambler Kitchen & Tap,ChIJG89RRFfTD4gRsCbvesa3p3Y,4.6,273,41.9567257,-87.68084619999999
275,Rossi's,ChIJcWzJBK4sDogRZYF6rJdvmuA,4.6,929,41.8897309,-87.62813729999999
443,Ten Cat Tavern,ChIJm3nx0UfSD4gRsrEvE8SZf4s,4.6,248,41.9534384,-87.66882550000001
154,Wolcott Tap,ChIJtV8DyT3SD4gRzMU1BvY1bsY,4.6,417,41.9616742,-87.67584289999999
103,Will's Northwoods Inn,ChIJqxmlO1XSD4gRNome3-iToO0,4.6,845,41.9372603,-87.6590621
369,The Cabin at Old Irving,ChIJew_p7bfND4gRpKZU2cWXpyQ,4.6,177,41.9557808,-87.7277788
285,The Avondale Tap,ChIJn4KPtKHND4gRH4Ri3Gdgkxs,4.6,450,41.9393752,-87.7187702
308,Forbidden Root Restaurant & Brewery,ChIJMUhGGqwsDogRzmCX4jRx34o,4.6,1672,41.896238,-87.671559
439,The Beetle Bar and Grill,ChIJzyd6JVMtDogRAnlJ0Ca5ifo,4.6,502,41.8958375,-87.69072349999999
441,The Aberdeen Tap,ChIJw3ZukNYsDogRJxj5dBCbB70,4.6,836,41.8901494,-87.6550042
89,Fuller's Pub,ChIJ_xlKYpLND4gR0MBnKE3BROI,4.6,244,41.9537866,-87.7082605
465,Tuman's Tap and Grill,ChIJq2qPRkstDogRCrIeIyvV-mc,4.6,424,41.8956882,-87.68176969999999
349,Sportsman's Club,ChIJKYVAfbLSD4gRNH5upOoJZr4,4.6,405,41.8989899,-87.6872016
410,Gilt Bar,ChIJ0bBajbYsDogRhY8z-LYaZr4,4.6,1331,41.889287,-87.6353347
340,Billy Sunday,ChIJa2SIvXrND4gRrPqCMMhIes0,4.6,594,41.9278184,-87.7065093
387,Weegee's Lounge,ChIJ9VXHYhXND4gRDU1e6UMWl0U,4.6,284,41.9170036,-87.7190117
503,Fox Bar,ChIJnT3Q0tosDogR4xF93GgDjfs,4.6,173,41.883765,-87.64828399999999
128,The Barrel,ChIJnVdGUaAtDogRMQqVicJK5hY,4.6,253,41.8544061,-87.6757681
76,Davenport's Piano Bar and Cabaret,ChIJPxRq6cXSD4gRFyIeGwbpbL4,4.6,82,41.9070334,-87.67200749999999
248,Warehouse Bar & Pizzeria Chicago,ChIJB34BueTSD4gRhV9CBep1Imc,4.6,699,41.9249835,-87.6641164
246,Moneygun,ChIJl4qjZM8sDogR2QZVDh9Cgfo,4.6,792,41.8858416,-87.64517029999999
390,Rex Tavern,ChIJRYBhuBvMD4gR5yvW3S6qlcw,4.6,200,41.9705324,-87.76295569999999
399,Chicago Distilling Company,ChIJadCJ82LND4gRhlZIsJHj1XY,4.6,72,41.92414850000001,-87.6991666
391,Fritzy's Tavern,ChIJL4OZNJbRD4gRx-ya9x8oqk8,4.6,142,41.9942544,-87.67040089999999
330,Rose's Lounge,ChIJy9st0wPTD4gR-uqvZI2MqAM,4.6,227,41.93016739999999,-87.6555712
324,The Heavy Feather,ChIJU6Jk9GLND4gRRrgkX-xyRB8,4.6,141,41.9242181,-87.6989609
325,One City Tap,ChIJf2M1z7ctDogRX1uHECHMLUM,4.6,119,41.8372293,-87.6659109
115,Bar Roma,ChIJcReJ4SfSD4gRTHFLUwR7HWg,4.6,719,41.9744963,-87.66808209999999
241,Rainbo Club,ChIJne-d28nSD4gRea659m_EFkQ,4.6,302,41.9027643,-87.6774054
468,The Garage Bar & Sandwiches,ChIJLXthw0jJD4gR9aoGvQRM8HU,4.6,635,41.9934537,-87.7844398
344,Cunneen's,ChIJuRwQGKPRD4gR5TnbInF35hY,4.6,186,41.9983065,-87.6666288
251,The Corrib Irish Pub,ChIJUSDFuqbOD4gR6m43qmdxnAw,4.6,96,41.98148,-87.7623456
2,Moxy Chicago Downtown,ChIJxdetj7MsDogRzITzzoOKilU,4.6,948,41.8918405,-87.6331075
407,Off Color Brewing Taproom The Mousetrap,ChIJq6UiyiXTD4gRNnR1hmKINhM,4.6,635,41.907905,-87.6521195
472,Old Irving Brewing Co.,ChIJL5_MijTMD4gRBEVFpHRC9oQ,4.6,1085,41.9606659,-87.7392662
382,Teddy Bear Lounge,ChIJG6B7iK_ND4gRPprXSew8cKA,4.6,108,41.9449616,-87.7271938
83,Bialystok Pub,ChIJB95kfQvND4gRspPwrP04h7E,4.6,100,41.9317876,-87.71923220000001
260,BallPark Pub,ChIJgZuXvCIsDogRW8AwCCCoD7M,4.6,326,41.8237142,-87.6393423
348,Best Intentions,ChIJOX_c02nND4gRhZNyBsxxB2E,4.6,446,41.9171619,-87.7101417
78,George Street Pub,ChIJoVVG6QfTD4gRZosUygRlFX4,4.6,682,41.9343993,-87.6492511
314,District Brew Yards,ChIJh_hkpRMtDogRiYFgy7l-XB0,4.6,1186,41.8894087,-87.6667095
258,GO Tavern & Liquors,ChIJB1R5D2jND4gRA_zHYd3PKRw,4.6,332,41.9172766,-87.70781099999999
483,The Arrogant Frog Bar,ChIJq118WOPSD4gRcN7k9mmp2hQ,4.6,122,41.9250073,-87.66315929999999
161,Dram Shop,ChIJp8qL36bTD4gRDQSK73wmFkE,4.6,155,41.9376968,-87.6444973
404,Michael's Sports Lounge,ChIJl6KGvPAxDogRqIEmHrkUNME,4.6,78,41.8115203,-87.7081887
485,The Gman Tavern,ChIJfa3CpUzSD4gRSPaC4IWfi2Q,4.6,430,41.9500181,-87.658968
257,Joe's On Broadway,ChIJTzNsjbrTD4gRWDNzts7CRrY,4.6,183,41.9472701,-87.647058
277,Vaughan's Pub & Grill,ChIJSyig51TJD4gRjypwO_-pT6Y,4.6,377,41.9804778,-87.7776425
736,The Corner Bar,ChIJWzMlWZHSD4gREH5ncIAQ0wU,4.7,239,41.92202590000001,-87.68281170000002
299,Old Town Ale House,ChIJicktJEHTD4gRRdOGcR40Vs0,4.7,737,41.9110139,-87.63559409999999
198,Muse Spirits,ChIJky1kc2zTD4gRNo7bGqVHH3Y,4.7,29,41.9396709,-87.64425419999999
381,Ludlow Liquors,ChIJI3BjHYDSD4gR4sUtVPABI-4,4.7,270,41.9356438,-87.6976021
526,Mother's Ruin,ChIJNaL7s1nND4gRgjh3CyL8e2M,4.7,213,41.934971,-87.71646679999999
374,Long Room Chicago,ChIJadsZl0fSD4gRq-qid8_bqCM,4.7,599,41.9544314,-87.66969329999999
175,Small Bar,ChIJySZ5ZnjND4gRsSVk29mjH2I,4.7,485,41.9355571,-87.7052853
114,Chipp Inn,ChIJl51MItPSD4gRNitDCgt8m7M,4.7,218,41.89710669999999,-87.66508309999999
113,Navigator Taproom,ChIJ0wZPn57SD4gR_dGxySRKO0w,4.7,519,41.920928,-87.69384500000001
320,Di's Den,ChIJsYtyvUHMD4gR_3Yid1rZekg,4.7,117,41.95350639999999,-87.754842
338,Spiteful Brewing Tap Room,ChIJl-yoZPTRD4gRO-xatKf3nNI,4.7,311,41.9797995,-87.6807331
30,Four Moon Tavern,ChIJP_srr13SD4gRmJTIefg-T5Q,4.7,412,41.9431134,-87.67586779999999
345,Ørkenoy,ChIJdXJdfP3ND4gRD-GAYQjfEqw,4.7,223,41.9135446,-87.71157149999999
776,Larry's,ChIJmSKYdtPTD4gRe9IR_lwu4SM,4.7,197,41.9691872,-87.6558159
183,J&M Tap,ChIJS_a0ZbTSD4gRbvqqNcdrEAk,4.7,150,41.8993156,-87.681912
184,Dovetail Brewery,ChIJd32TZT_SD4gR2vyteeanycc,4.7,435,41.9561505,-87.6744307
771,Elixir Lounge,ChIJBZT74K_TD4gRxgnJs4jSrjM,4.7,165,41.9451796,-87.6495521
311,Keenan O'Reilly's Pub,ChIJ1ZSiSkbSD4gRv9uSxC7kp_8,4.7,106,41.9530042,-87.66922699999999
764,Stanley's,ChIJDy_-h3guDogR43530f-6R6w,4.7,86,41.816001,-87.6657178
763,Goose Island Taproom,ChIJGZnauzAtDogRM_CCEZhCr4E,4.7,811,41.8869546,-87.6722841
362,Montrose Saloon,ChIJkbYWAfTND4gRzzRfFxeIbBQ,4.7,403,41.9610574,-87.70231530000001
32,Smoke Filled Room,ChIJBQFamU8xDogRPXAPOpxn7TM,4.7,104,41.7495423,-87.7070868
192,MILANO’S Cafe Bar,ChIJMZCfEabND4gRTtSDWw5h86Q,4.7,115,41.9410776,-87.72626319999999
123,Fudy T's,ChIJHe9H60zRD4gRf7WVUZOE-Ts,4.7,37,42.00802119999999,-87.6665213
744,Archie's Iowa Rockwell Tavern,ChIJR3fnvKzSD4gRah4KeQtA9rA,4.7,287,41.8976833,-87.6920078
20,The Double Urban Tavern,ChIJ1196HW3ND4gRstyh_kUTPWs,4.7,148,41.9243421,-87.715542
396,Pilot Project Brewing,ChIJjUQUcN7TD4gRWlViMb5I81Q,4.7,362,41.919946,-87.692981
207,Six Penny,ChIJrTjAmwvMD4gRlb1NmhyI4-o,4.7,181,41.9606882,-87.77234159999999
42,Uncle Mike's Sports Bar,ChIJn3i5-BfND4gR-FXydAJH2X4,4.7,132,41.9172679,-87.7270581
456,The Native,ChIJ7dOuPWPND4gRloZ96QGdekc,4.7,286,41.9252358,-87.7009549
568,Drawing Room,ChIJ-Z2sQaQsDogRoANuN-Pkyuo,4.7,240,41.881662,-87.6249685
464,Lincoln Hall,ChIJF5adNwXTD4gRnfyy_a5-5aA,4.7,1572,41.9259221,-87.6498374
141,Rogers Park Social,ChIJeTJRsq_RD4gRz1iVZSRu4D0,4.7,884,42.0073911,-87.66625719999999
85,The Ravenswood Tavern,ChIJEQu6UczTD4gRzIn5IbsgCo0,4.7,73,41.9613819,-87.67558110000002
559,Maplewood Brewery & Distillery,ChIJv0fLI4TSD4gRe-BekF-Pb84,4.7,547,41.930889,-87.69134679999999
261,Lucky Dorr,ChIJUwHSPbPTD4gReLJ0JE775dk,4.7,157,41.9488198,-87.65688569999999
474,Cultivate by Forbidden Root,ChIJG-ufoIjTD4gRrkk1WQ1nZvc,4.7,153,41.96755890000001,-87.6750644
479,Marz Community Brewing Company,ChIJrxcPVjgsDogREDGkncuy4ww,4.7,546,41.8277584,-87.6593736
152,The Red Lion Pub,ChIJJZbIIwXTD4gR8rBaioAFcUo,4.7,668,41.9262933,-87.65043460000001
454,Drink and Ink,ChIJ36Zmqs3TD4gR2uz2-le425U,4.7,94,41.9629255,-87.6556854
232,Easy Does It,ChIJDwJxRsPND4gRytqBxb5kDYw,4.7,96,41.9239014,-87.6994406
494,Osito's Tap,ChIJGY5mlh0zDogRRpdejPcywbs,4.7,255,41.8447067,-87.7181772
138,Hungry Brain,ChIJdwtKFmPSD4gRXU9en6OWBQU,4.7,209,41.9393541,-87.68645629999999
499,Matisse Tavern & Grill,ChIJl5_e9wjTD4gR22tJzrrIqWs,4.7,528,41.9329279,-87.6465947
70,Reed's Local,ChIJGayFy4PND4gRvwFADOjvXc8,4.7,264,41.939265,-87.7034406
245,Duke Of Perth,ChIJ1wOOJwjTD4gRngsckNwAs5k,4.7,716,41.9352489,-87.6467047
236,Hopleaf,ChIJL74HG4jRD4gRZAsc6JenPxg,4.7,3175,41.975829,-87.66849760000001
532,Nilda's Place,ChIJQWrwEcvSD4gRmC13AgFb4VU,4.7,37,41.8978783,-87.67448739999999
237,Kumiko,ChIJVVVFV88sDogRIs6NMpEi61s,4.7,392,41.8858905,-87.6440207
519,Annoyance Theatre & Bar,ChIJR3WzOqnTD4gRJTxaC0gORME,4.7,620,41.9398586,-87.6513836
522,Sleeping Village,ChIJIZkjJ6HND4gRwgmE3djktKM,4.7,827,41.9394177,-87.7213611
491,My Buddy's,ChIJhxdd7jDSD4gRtWIfVg-2ApE,4.7,371,41.9622192,-87.6662193
222,Open Outcry Brewing Company,ChIJswWq6N4kDogRrHtoY9ktOMA,4.7,783,41.6944301,-87.6814497
59,Delilah's,ChIJSZTigAHTD4gRF4MVV_BKBBE,4.7,924,41.9322658,-87.65806049999999
167,Matchbox Bar,ChIJf_8gMyvTD4gRXzOM84x7uD4,4.7,434,41.895692,-87.6548107
99,Liar’s Club,ChIJDWY2ze_SD4gRuNNLbqinl8E,4.7,366,41.9249754,-87.6706292
98,The Victor Bar,ChIJXYZyvWrSD4gRdrcsTpaAGhg,4.7,325,41.9545912,-87.67863609999999
294,Wang's,ChIJh2qKYKTTD4gRZNNVeKUgMNY,4.7,172,41.9425039,-87.644352
402,The Empty Bottle,ChIJR-BMErLSD4gRFUV3e3FwXEo,4.7,1309,41.9004139,-87.6867377
96,On Tour Brewing Company,ChIJwzcrCjEtDogRKd9b9HESVXA,4.7,308,41.8896034,-87.6705593
406,Pleasant House Pub,ChIJMe6pU1gsDogRVi7P2WTpr5A,4.7,1217,41.8534956,-87.6462925
610,Kingston Mines,ChIJ8b-ckQXTD4gRSiZPBswZmnE,4.7,3225,41.9287018,-87.6490164
5,The Booze Hound,ChIJ52KHo03MD4gRKS25iFt6lOA,4.7,138,41.9486917,-87.7397962
73,Queen Mary,ChIJQ3h88bbSD4gRpCS8A9UibSs,4.7,389,41.9029715,-87.6807371
53,Cary's Lounge,ChIJxVoi2sLRD4gRJHS0jzXXwo0,4.7,267,41.9976697,-87.68697189999999
597,5th Province,ChIJQ2jYTDDMD4gREReK9qylfqk,4.7,107,41.9653605,-87.7442684
596,Alarmist Brewing & Taproom,ChIJt_Q3cGTOD4gR2LKgAe5ra-M,4.7,225,41.9898657,-87.73161689999999
276,Royal Palms Chicago,ChIJX5vujr7SD4gRBWqgcPY9OWg,4.7,712,41.9131228,-87.68190949999999
593,Foundation Room Chicago,ChIJuxzb0bEsDogRY0_Z--o0pLU,4.7,153,41.8882037,-87.6292039
212,Marty's,ChIJ-y8Er4jRD4gRr15VIWp3gko,4.7,404,41.9797522,-87.6687511
588,Maple & Ash Patio,ChIJE8GjKE7TD4gR70ENZ5CYbmw,4.7,89,41.9020203,-87.6285
144,UP Comedy Club,ChIJ-bkAJEHTD4gRsmKWLuzFt9Q,4.7,161,41.9113631,-87.63565369999999
586,WineStyles Norwood Park,ChIJQUztULDJD4gRENVLg6iBDlI,4.7,79,41.9938534,-87.8023193
438,DMen Tap,ChIJiXgD_IDND4gRn1il45NG5uM,4.7,578,41.93929199999999,-87.6997154
445,Bar106 The Neighborhood Tavern,ChIJA3F8qjE7DogRgMuC8LkU5CU,4.7,42,41.698994,-87.7202717
269,Cafe Prague,ChIJ92we1J_LD4gRwiCwLl4y1AE,4.7,665,41.9382976,-87.79384569999999
268,Blue Chicago,ChIJezvnsLMsDogRLDrqWcT7SRI,4.7,1355,41.89197619999999,-87.63146599999999
220,Beermiscuous,ChIJW6ETSv7SD4gRU81ef2JzAJ8,4.7,630,41.9328472,-87.6594283
101,O's Tap,ChIJc04B1ZnSD4gRiDm7MZcEPiM,4.7,112,41.9189333,-87.68772709999999
434,Logan Arcade,ChIJPUOMoprSD4gRf8R-f-It5HA,4.7,1117,41.9251483,-87.6881745
243,Bitter Pops,ChIJt72hrFvSD4gRFm-mpFFLSJ8,4.8,606,41.9431545,-87.6708106
803,Red Star Bar,ChIJl4A9hnwtDogRDjFh9aIAMSA,4.8,4,41.8914097,-87.6208936
359,Green light Korean Pub& Karaoke,ChIJtSy_LWbRD4gRNlZFFYEXvlU,4.8,185,41.9903144,-87.6929201
309,Nobody's Darling,ChIJzaiJj9jRD4gRlnu8EbFa-MU,4.8,228,41.9798579,-87.67405409999999
97,The Beer Temple,ChIJ48kGhIDND4gR6A1xhVn1gHs,4.8,694,41.9388916,-87.6972193
424,Windy City Playhouse,ChIJO9Bv84zND4gRYntNgdD9xLM,4.8,126,41.9541151,-87.7038851
481,Confessions Chicago,ChIJ_Tn6q-MtDogRD_ekum4afvc,4.8,5,41.8197181,-87.68494510000001
495,Division on the Rocks,ChIJtypT3FLTD4gRmAyTz8OCWZA,4.8,6,41.9040282,-87.63194419999999
504,Begyle Brewing,ChIJQ2q6nkDSD4gRdxmBFkuhfxk,4.8,529,41.9552432,-87.6744982
529,Barrelman Tavern,ChIJ77KeyJbRD4gRWRILsivEINg,4.8,150,41.9909001,-87.6714697
536,Black Eagle Club,ChIJmz8c25_TD4gRR_k0n50i-Go,4.8,72,41.954319,-87.6778945
174,Web Pub Bucktown,ChIJx-sHW5PSD4gR9G2HStUKJCI,4.8,149,41.9214647,-87.67884579999999
67,Whirlaway Lounge,ChIJJxcZmG_ND4gRwm9RpDqpkus,4.8,248,41.9248891,-87.70853269999999
66,Rosa's Lounge,ChIJ484gBWrND4gRKHIPWs9Olmc,4.8,627,41.9174433,-87.71281940000001
544,Hop Butcher For The World,ChIJqWoskqDTD4gReXvPLubBVVg,4.8,76,41.9592752,-87.68219959999999
537,The Tavern Club at 333,ChIJJT3NIK8sDogRZOFK6VWSw8M,4.8,11,41.8876238,-87.6242032
190,Kite String Cantina,ChIJH3Yk20LSD4gRidtFqwBBYsw,4.8,216,41.946766,-87.67599419999999
221,Whiner Beer Company,ChIJXc51MnwuDogR_Y3K6Ztdqhw,4.8,206,41.8106674,-87.6606774
575,Solemn Oath Brewery Still Life,ChIJnQXBjmDND4gRm7bSIIfH-Q4,4.8,185,41.9173961,-87.7000594
583,Rhine Hall Distillery,ChIJybpjECgtDogR9NFa_Xwic-A,4.8,122,41.88690829999999,-87.6779528
759,Pete's Place,ChIJ0ZRkWIrND4gRVMZhSVLjKts,4.8,103,41.953836,-87.6993202
39,"kibbitznest books, brews & blarney",ChIJr44yNOTSD4gRSzJz6oSDBFI,4.8,600,41.9218673,-87.6652558
37,Rootstock Wine & Beer Bar,ChIJV2NsiKrSD4gRJWTZ71R0h9w,4.8,369,41.8990608,-87.6969491
561,Regina & Joe Tap,ChIJb0qtuArND4gR8LZpj-BZEDg,4.9,7,41.9355323,-87.7182117
197,Consignment Lounge,ChIJ5eKFUkDND4gRt5i-377R7oM,4.9,69,41.9320889,-87.7156646
423,Jarvis Square Tavern,ChIJ-QQNOTbRD4gRdkbOqpjyrzU,4.9,34,42.01626359999999,-87.6684901
731,The Charleston,ChIJgaBV_MbTD4gRA6XS1KpIrpA,4.9,46,41.9198993,-87.6803044
452,Moonflower,ChIJHaoi2erND4gRVvwoObZgPkk,4.9,182,41.9603255,-87.7540327
554,Pipeworks Brewing Company,ChIJjyXxuLzSD4gRiblFLlPqLuE,4.9,124,41.9181966,-87.7254462
484,Bernard’s,ChIJrXUBGInTD4gRz2B1_f4917s,4.9,21,41.8997462,-87.6274657
569,Life on Marz Community Club,ChIJBbojf3fTD4gRAF2jSYnp32g,4.9,50,41.917475,-87.68759999999999
326,Printer's Row Brewing,ChIJodiD92LLD4gRiK0bef2Ai_4,4.9,87,41.9679289,-87.77726179999999
287,Sonny's Place,ChIJjbPuijzND4gRhDYZXZHujUQ,5,6,41.9683177,-87.7058761
288,Tiki Tiki Chicago,ChIJw-jNo5AtDogREhpwaYunG6o,5,12,41.8956071,-87.6547798
50,red & white wines,ChIJN9MbPFXTD4gR8ckWk-kYUKs,5,3,41.9152382,-87.68471249999999
602,The Stanley Club,ChIJ3zf4xiYtDogRyAz5xfrQTNI,5,3,41.8816594,-87.6616195
111,Electric Hotel,ChIJYQNJcNUtDogRpqPwOygh3U4,5,1,41.8934118,-87.63508279999999
425,The Village Inn Bar,ChIJb1qCTiItDogRFI3gGw7uaFk,5,7,41.820669,-87.64083199999999
627,Side Street Saloon,ChIJUdu8XfjSD4gR3eWd7Yz49sQ,4.7,217,41.9344241,-87.66585769999999
628,Bureau Bar and Restaurant,ChIJreaOqhMtDogREsyrRF4y8YY,3.4,632,41.8537198,-87.6268692
629,W XYZ Bar,ChIJ-7kCNwEtDogRv0r3KR_LsGc,4.3,22,41.8932703,-87.6213338
631,The Wild Hare & Singing Armadillo Frog Sanctuary,ChIJ_19bjrLTD4gRMkulph9iPKY,4.4,1142,41.9294932,-87.64904949999999
634,Moody Tongue,ChIJKREupjctDogRPMJ46mxncfM,4.6,435,41.8469335,-87.6252206
636,Output Lounge & Sports Bar,ChIJP7kGM6LTD4gR5ownY1FvvFc,4.3,155,41.9496305,-87.6586366
638,The Baton Show Lounge,ChIJS4vDf7EsDogRURPwc3CUKsU,4.6,740,41.9677429,-87.6586988
639,Danny's Pizza Place,ChIJo4IFQjcxDogRUM9lRrhEZz8,4.5,1037,41.7947675,-87.76750729999999
640,HVAC Pub,ChIJ79dqjrLTD4gRCYX1tuCTjWA,4,474,41.94624719999999,-87.65614389999999
641,Illuminated Brew Works,ChIJT_hGkXktDogRKjjlWhz3lf4,4.9,102,41.9939701,-87.80246029999999
642,Declan's Irish Pub,ChIJvUXnnkjTD4gRXgDxhUfj09U,4.2,389,41.9050321,-87.6346992
643,Rush Street,ChIJ82T37C60D4gRQL-ytaVvnw0,4.1,559,41.9732323,-87.90052159999999
727,ROCKS lakeview,ChIJV9ve1aTTD4gR569nrCfNs74,4.4,1177,41.9450319,-87.6457252
729,The Brig,ChIJlQc9RyrND4gRE160KNWzPvA,4.9,7,41.967917,-87.77162539999999
795,West 55th Street,ChIJZY_QXqMxDogR9Kr9w1jODHU,4.4,174,41.79291810000001,-87.7282062
801,Thee Beauty Bar,ChIJMZkU8eIrDogRcYw5f3kDurM,4.5,224,41.8169362,-87.6062594
809,Venue OverDrive,ChIJEcRh_XssDogROUI5yZbllPc,4.7,151,41.8499662,-87.62356679999999
867,Gaslight,ChIJ82ZhUP3SD4gR0RKfiNge4lg,4.3,502,41.92681220000001,-87.64161089999999
932,Gilt Bar,ChIJ0bBajbYsDogRhY8z-LYaZr4,4.6,1333,41.889287,-87.6353347
